site_id,price_cpl,reported_at,name,brand_id,latitude,longitude,postcode,google_place_id,region,scraped_at,state,brand,suburb
61401106,161.9,2026-07-03T11:55:19.44,BP Newstead,5,-27.452584,153.041807,4006,ChIJnW80r5NZkWsRgV8e8H0VEto,North,2026-07-03 22:01:57,QLD,,
61401117,172.9,2026-07-01T01:07:03.19,Liberty Highgate Hill,86,-27.483409881192497,153.0197200841747,4101,ChIJFe8PUAtakWsRbLWWKkYfDZs,South,2026-07-03 22:01:57,QLD,,
61401118,159.9,2026-07-03T06:11:00,7-Eleven East Brisbane,113,-27.48469982543029,153.03976776686477,4169,ChIJAb5RTz5akWsRUaQ7BNqKleM,South,2026-07-03 22:01:57,QLD,,
61401119,159.9,2026-07-03T11:55:19.44,BP East Brisbane,5,-27.479316,153.043606,4169,ChIJsaz0ojxakWsRySsGs4BWRXQ,South,2026-07-03 22:01:57,QLD,,
61401124,161.9,2026-07-02T20:27:19.077,Ampol Foodary Woolloongabba,3421066,-27.490753,153.040153,4102,ChIJH3cr9EBakWsRUCyy2e0I8w4,South,2026-07-03 22:01:57,QLD,,
61401126,179.9,2026-07-01T19:11:06.573,BP Milton,5,-27.467628,153.007504,4064,ChIJMfXV3K5QkWsRAnSJkGZzd_I,North,2026-07-03 22:01:57,QLD,,
61401128,161.9,2026-07-02T20:00:35.31,Shell Reddy Express Balmoral,3421193,-27.452187,153.062044,4171,ChIJEVgpfnVZkWsRL6Aaqwnuh-M,North,2026-07-03 22:01:57,QLD,,
61401131,153.9,2026-06-30T21:25:23.077,Quill Petroleum Hawthorne,12,-27.472295835233435,153.05950272883607,4171,ChIJM3DsuaFbkWsRFZhaZi-BHgs,South,2026-07-03 22:01:57,QLD,,
61401132,153.9,2026-06-30T22:35:09.797,BP Stanley Street East,5,-27.488386,153.047595,4169,ChIJjdQvXDhakWsRItE81r9aBYU,South,2026-07-03 22:01:57,QLD,,
61401134,161.9,2026-07-02T20:22:18.397,Ampol Foodary Camp Hill,3421066,-27.491978,153.064833,4152,ChIJ_2JF88pbkWsRVGgat1rOx6Q,South,2026-07-03 22:01:57,QLD,,
61401136,161.9,2026-07-02T22:25:13.103,Caltex Norman Park,2,-27.483909,153.063748,4170,ChIJ62HWbM1bkWsRY3Ct22ougIk,South,2026-07-03 22:01:57,QLD,,
61401137,157.5,2026-07-02T19:38:10.5,Freedom Fuels Seven Hills,110,-27.479358,153.071094,4170,ChIJ3Xvp1NBbkWsRTF3aRbJf3ZA,South,2026-07-03 22:01:57,QLD,,
61401138,161.9,2026-07-02T20:05:26.533,Shell Reddy Express Camp Hill,3421193,-27.492781,153.082664,4152,ChIJt2qBncFbkWsRp-9LuEuLPxA,South,2026-07-03 22:01:57,QLD,,
61401140,161.9,2026-07-02T20:51:15.4,Caltex Morningside,2,-27.46640548892771,153.07819476837022,4170,ChIJybOuy2VZkWsRbGF140zLwHI,North,2026-07-03 22:01:57,QLD,,
61401142,161.9,2026-07-02T20:22:18.397,Ampol Foodary Colmslie,3421066,-27.466503,153.079198,4170,ChIJh3pT0mVZkWsRChcAEc7cMrw,North,2026-07-03 22:01:57,QLD,,
61401147,179.9,2026-07-03T04:39:55,BP Cannon Hill,5,-27.469816,153.095634,4170,ChIJBbZMkFpZkWsRvgpSchQr7eY,North,2026-07-03 22:01:57,QLD,,
61401148,161.9,2026-07-02T20:00:35.31,Shell Reddy Express Cannon Hill,3421193,-27.471389,153.095619,4170,ChIJYSDGFVpZkWsRgelgZG13Otk,South,2026-07-03 22:01:57,QLD,,
61401149,161.9,2026-07-02T20:00:35.31,Shell Reddy Express Tingalpa,3421193,-27.474597374792506,153.12096549570083,4173,ChIJ370vfaVekWsRkqIXFgC1uKM,South,2026-07-03 22:01:57,QLD,,
61401155,165.9,2026-07-02T20:37:18.557,Ampol Foodary Carindale,3421066,-27.505555,153.099646,4152,ChIJtw91yY1bkWsRESXAqBZbUvU,South,2026-07-03 22:01:57,QLD,,
61401156,159.5,2026-07-02T20:07:13.02,Freedom Fuels Thorneside,110,-27.488687,153.194782,4158,ChIJB7AluARekWsRoknPLPgwPz0,South,2026-07-03 22:01:57,QLD,,
61401157,161.9,2026-07-02T22:18:00,EG Ampol Birkdale,3421073,-27.494931,153.212762,4159,ChIJJwlYTq5gkWsRo76rItS39YM,South,2026-07-03 22:01:57,QLD,,
61401159,159.9,2026-07-03T11:55:19.44,BP Wellington Point,5,-27.487062,153.238493,4160,ChIJs71gssJgkWsR61sU3yleKcY,South,2026-07-03 22:01:57,QLD,,
61401160,159.9,2026-07-02T20:58:23.157,BP Cleveland,5,-27.523907,153.258759,4163,ChIJmabHcdpmkWsRx0w-8cjj2Q0,South,2026-07-03 22:01:57,QLD,,
61401167,161.9,2026-07-02T20:22:18.397,Ampol Foodary Kenmore,3421066,-27.507802,152.948185,4069,ChIJbUelnL5RkWsRetraDlB2XKw,South,2026-07-03 22:01:57,QLD,,
61401170,161.9,2026-07-02T20:05:26.533,Shell Reddy Express Chapel Hill,3421193,-27.504769592318205,152.96077843320464,4069,ChIJRzXv5rFRkWsRwj8FFy4uTig,South,2026-07-03 22:01:57,QLD,,
61401172,161.9,2026-07-02T20:05:26.533,Shell Reddy Express Taringa,3421193,-27.491609,152.994039,4067,ChIJ79oWCo1QkWsRGAD9odU59do,South,2026-07-03 22:01:57,QLD,,
61401173,165.9,2026-07-03T08:26:58,BP Indooroopilly,5,-27.499530327092497,152.9754396405449,4068,ChIJBQwKWlZQkWsR9spiMwaIWfk,South,2026-07-03 22:01:57,QLD,,
61401177,165.9,2026-07-03T01:40:00,7-Eleven Graceville,113,-27.521931,152.980164,4075,ChIJz-dhzDlQkWsRABldX0sal-g,South,2026-07-03 22:01:57,QLD,,
61401180,157.5,2026-07-03T02:55:08.993,United Sherwood,23,-27.532831,152.983247,4075,ChIJLZUgR41RkWsRyI5jDOf3DCI,South,2026-07-03 22:01:57,QLD,,
61401183,161.9,2026-07-02T20:32:16.893,Ampol Foodary Annerley,3421066,-27.512236,153.032024,4103,ChIJCQ4QZIlakWsRy5k83oVzmKo,South,2026-07-03 22:01:57,QLD,,
61401185,161.9,2026-07-03T01:37:00,7-Eleven Fairfield Gardens,113,-27.508609,153.025429,4103,ChIJf6KA6IdakWsRyYmEAovHeYw,South,2026-07-03 22:01:57,QLD,,
61401188,161.9,2026-07-03T01:37:00,7-Eleven Yeronga,113,-27.519285,153.015135,4104,ChIJHykiiZ1akWsR6eo2ZjUfs-E,South,2026-07-03 22:01:57,QLD,,
61401189,161.9,2026-07-02T19:23:00,7-Eleven Moorvale,113,-27.524123,153.023568,4105,ChIJXyWDdplakWsRPFj6tkp0BJY,South,2026-07-03 22:01:57,QLD,,
61401195,163.9,2026-07-02T22:24:00,EG Ampol Moorooka,3421073,-27.539627,153.022022,4105,ChIJBcsHe69akWsRrz9AT2DPDxU,South,2026-07-03 22:01:57,QLD,,
61401197,157.5,2026-07-02T20:17:19.14,U-Go Rocklea,3421183,-27.538641,153.005432,4106,ChIJ4Ro9-gRQkWsRYX-iJB95ozA,South,2026-07-03 22:01:57,QLD,,
61401199,153.9,2026-07-01T21:41:58,BP Stones Corner,5,-27.502373,153.045544,4120,ChIJAQ3MbVtakWsRPPvVxrhoIEk,South,2026-07-03 22:01:57,QLD,,
61401200,156.9,2026-07-03T00:10:00,7-Eleven Greenslopes,113,-27.504612,153.040209,4120,ChIJD8x02V1akWsR9b6iqySBPiM,South,2026-07-03 22:01:57,QLD,,
61401206,160.7,2026-07-02T20:17:19.14,U-Go Park Ridge,3421183,-27.696645,153.038101,4125,ChIJ43dOgMdHkWsR_E_M5QBFqMc,South,2026-07-03 22:01:57,QLD,,
61401210,165.9,2026-07-03T02:45:07.497,NightOwl BP Holland Park,5,-27.515107,153.072439,4121,ChIJU7dOZKhbkWsR4MW7yFZ7AZo,South,2026-07-03 22:01:57,QLD,,
61401212,161.9,2026-07-02T20:00:35.31,Shell Reddy Express Logan Rd,3421193,-27.529893329941103,153.07154507422237,4122,ChIJsTHT9hpbkWsR-_q6758xgZQ,South,2026-07-03 22:01:57,QLD,,
61401218,157.5,2026-07-03T00:26:03.443,Liberty Deception Bay,86,-27.199148,153.032128,4508,ChIJM-b4qzLvk2sRS50LEcMFwic,North,2026-07-03 22:01:57,QLD,,
61401224,162.9,2026-07-02T20:22:18.397,Ampol Foodary Kippa-Ring,3421066,-27.226826,153.084902,4021,ChIJEzVIWI3lk2sRoKCiLoFYwkk,North,2026-07-03 22:01:57,QLD,,
61401225,159.9,2026-07-02T06:27:45.667,Metro Clontarf,57,-27.241169,153.086872,4019,ChIJaT80nqTlk2sRgi-_AOtcoyU,North,2026-07-03 22:01:57,QLD,,
61401227,165.9,2026-07-03T06:55:25.65,Caltex Redcliffe,2,-27.222051,153.110819,4020,ChIJs_RgRwDmk2sRwBCE-FsLmEA,North,2026-07-03 22:01:57,QLD,,
61401228,161.9,2026-07-03T06:07:00,7-Eleven Redcliffe,113,-27.230354,153.109317,4020,ChIJ7_WU8wfmk2sR8UTVUZfn1Dg,North,2026-07-03 22:01:57,QLD,,
61401229,161.9,2026-07-02T20:37:18.557,Ampol Foodary Redcliffe,3421066,-27.229577,153.102033,4020,ChIJXW5zUPvlk2sRx2VeSOrSVDU,North,2026-07-03 22:01:57,QLD,,
61401234,161.9,2026-07-02T20:05:26.533,Shell Reddy Express Clontarf,3421193,-27.257355,153.086063,4019,ChIJ90Lmmsrlk2sRIQdZF8A9hLA,North,2026-07-03 22:01:57,QLD,,
61401235,155.9,2026-07-03T01:12:40.453,BP Boulevarde,5,-27.255871,153.094417,4019,ChIJO9Qh0c3lk2sRQJzTFzNN5xw,North,2026-07-03 22:01:57,QLD,,
61401238,165.9,2026-07-01T23:49:41,Red Dog Petroleum,12,-27.254478,152.982078,4503,ChIJNSFdLRL7k2sRWUYyqmurz1Y,North,2026-07-03 22:01:57,QLD,,
61401246,161.9,2026-07-03T01:37:00,7-Eleven Strathpine,113,-27.307774,152.990528,4500,ChIJW4hHe-r8k2sRJWfuWa0Pj2Q,North,2026-07-03 22:01:57,QLD,,
61401249,161.9,2026-07-03T01:37:00,7-Eleven Eatons Hill,113,-27.337933,152.960099,4037,ChIJr3UNv6P9k2sRPC9fEYSLMek,North,2026-07-03 22:01:57,QLD,,
61401250,161.9,2026-07-03T01:37:00,7-Eleven Bald Hills,113,-27.319376,153.006967,4036,ChIJJ2E6_4T9k2sRyVGAWFxlBTA,North,2026-07-03 22:01:57,QLD,,
61401252,161.5,2026-07-02T20:17:19.14,U-Go Bracken Ridge,3421183,-27.319382,153.040903,4017,ChIJ6XIgzBXjk2sRzrmPdaqKqH4,North,2026-07-03 22:01:57,QLD,,
61401254,161.5,2026-07-03T02:54:19,Pacific Petroleum Deagon,2418994,-27.325029,153.059461,4017,ChIJgUULhAnjk2sR7Wkt3T44ZGQ,North,2026-07-03 22:01:57,QLD,,
61401255,153.5,2026-07-01T05:02:40.913,Metro Petroleum Sandgate,57,-27.321506,153.067479,4017,ChIJP0hAoALjk2sR68A99WnVfOM,North,2026-07-03 22:01:57,QLD,,
61401257,161.9,2026-07-03T01:37:00,7-Eleven Sandgate,113,-27.321088,153.067931,4017,ChIJTRViBKLjk2sREagrJr1SbMg,North,2026-07-03 22:01:57,QLD,,
61401258,161.9,2026-07-03T00:10:01.817,BP Bracken Ridge,5,-27.330999,153.041854,4017,ChIJ6zsE0x7jk2sRqDCa_CfHVoc,North,2026-07-03 22:01:57,QLD,,
61401261,161.9,2026-07-02T22:09:00,EG Ampol Deagon,3421073,-27.334055,153.059565,4017,ChIJO8-_Igfjk2sR78Bq2rlScSI,North,2026-07-03 22:01:57,QLD,,
61401263,159.9,2026-07-02T23:00:27.3,Caltex Zillmere,2,-27.366786,153.037181,4034,ChIJj4S5FL3ik2sReZHBn_0WAjY,North,2026-07-03 22:01:57,QLD,,
61401264,161.9,2026-07-03T01:37:00,7-Eleven Aspley,113,-27.358443,153.017037,4034,ChIJvUnyhbTik2sRcEO6pXEQ8lI,North,2026-07-03 22:01:57,QLD,,
61401265,161.9,2026-07-02T20:00:35.31,Shell Reddy Express Aspley,3421193,-27.359961,153.016587,4034,ChIJWzIdabPik2sRzep1g2BECXk,North,2026-07-03 22:01:57,QLD,,
61401272,161.9,2026-07-02T20:00:35.31,Shell Reddy Express Stafford Heights,3421193,-27.391747,153.011652,4053,ChIJxRrSSPRXkWsR7UwiDNgNOJY,North,2026-07-03 22:01:57,QLD,,
61401276,161.9,2026-07-03T01:37:00,7-Eleven Aspley,113,-27.364758,153.026257,4034,ChIJ4d-xC7Dik2sRr6WfFTu-7Bo,North,2026-07-03 22:01:57,QLD,,
61401279,159.9,2026-07-03T11:55:19.44,BP Connect Virginia,5,-27.374203,153.061916,4014,ChIJU85lVn3ik2sREWBV_wxcfJM,North,2026-07-03 22:01:57,QLD,,
61401280,161.9,2026-07-02T20:15:36.14,Shell Reddy Express Geebung,3421193,-27.374166,153.035974,4034,ChIJK5EZhqHik2sRar2zyiCmz6A,North,2026-07-03 22:01:57,QLD,,
61401281,161.9,2026-07-02T22:19:00,EG Ampol Chermside,3421073,-27.374851923673855,153.0248358966843,4032,ChIJdzeeQ6jik2sR9yfJRWmLoAM,North,2026-07-03 22:01:57,QLD,,
61401282,165.9,2026-07-01T21:34:14.567,BP Geebung,5,-27.379293,153.046309,4034,ChIJCeA1sZ3ik2sRSg13KZzToRM,North,2026-07-03 22:01:57,QLD,,
61401288,163.9,2026-07-03T09:48:30.6,Caltex Nundah,2,-27.391946,153.058897,4012,ChIJd6ICqn1YkWsRtXVr60tSVKY,North,2026-07-03 22:01:57,QLD,,
61401291,161.9,2026-07-02T20:27:19.077,Ampol Foodary Nundah,3421066,-27.398473,153.059252,4012,ChIJy879TmJYkWsR6mQsNJ_TBrg,North,2026-07-03 22:01:57,QLD,,
61401292,161.3,2026-07-02T20:17:19.14,U-Go West Chermside,3421183,-27.37991815990408,153.02246784540367,4032,ChIJgddj6QZYkWsR_5YHTx6hEUs,North,2026-07-03 22:01:57,QLD,,
61401296,157.5,2026-07-02T19:05:04.423,Freedom Fuels Nudgee,110,-27.386791,153.087063,4014,ChIJL98jHAvik2sR1kkPZCwKgAE,North,2026-07-03 22:01:57,QLD,,
61401298,161.9,2026-07-03T11:55:19.44,BP Northgate,5,-27.393208,153.072252,4013,ChIJLd5zvIRYkWsRUbCmJpLymlI,North,2026-07-03 22:01:57,QLD,,
61401301,162.9,2026-07-02T20:32:16.893,Ampol Foodary Arana Hills,3421066,-27.396824,152.960709,4054,ChIJ7Vsj7VFWkWsRNfgMMTTXfgQ,North,2026-07-03 22:01:57,QLD,,
61401302,161.9,2026-07-02T20:05:26.533,Shell Reddy Express Arana Hills,3421193,-27.397654,152.958951,4054,ChIJD4VFrVFWkWsR23Fa3bz0zqs,North,2026-07-03 22:01:57,QLD,,
61401307,163.9,2026-07-03T11:55:19.44,BP Ferny Grove,5,-27.402342,152.937156,4055,ChIJLWi45olWkWsRb2lLJtlfFvo,North,2026-07-03 22:01:57,QLD,,
61401309,165.9,2026-07-02T23:11:55.623,Caltex Everton Park,2,-27.401257,152.986898,4053,ChIJcU_jy7xXkWsRrY5ywkJPmHw,North,2026-07-03 22:01:57,QLD,,
61401316,161.9,2026-07-02T22:37:46.367,BP Stafford,5,-27.409316,153.008034,4053,ChIJ5ULRLYRXkWsRprwZHUYCOHc,North,2026-07-03 22:01:57,QLD,,
61401323,163.9,2026-07-03T11:55:19.44,BP Express Ashgrove,5,-27.439192,152.989914,4060,ChIJ9ccbRD9XkWsRS_OIg-DnK58,North,2026-07-03 22:01:57,QLD,,
61401324,161.9,2026-07-03T01:35:00,7-Eleven Newmarket,113,-27.438767,153.007379,4051,ChIJaxOJ9F1XkWsRsjCTuDr2xRk,North,2026-07-03 22:01:57,QLD,,
61401325,159.5,2026-07-02T23:52:32.437,NightOwl Shell Kelvin Grove,20,-27.445435,153.008589,4059,ChIJzxji3VtXkWsRhpsDomLZ0N0,North,2026-07-03 22:01:57,QLD,,
61401328,169.5,2026-06-30T15:44:29.883,BP Kedron,5,-27.40208501541335,153.031880046627,4031,ChIJweTQzz1YkWsRCIfEA6WhIXg,North,2026-07-03 22:01:57,QLD,,
61401329,169.3,2026-07-02T19:52:57.19,Caltex Kedron,2,-27.407241,153.032891,4031,ChIJx8ihZjlYkWsRgMFxsU4_D94,North,2026-07-03 22:01:57,QLD,,
61401330,157.5,2026-07-02T19:18:09.347,Freedom Fuels Wooloowin,110,-27.408291,153.047525,4030,ChIJIfLcgUNYkWsRI6lann9Z9Vg,North,2026-07-03 22:01:57,QLD,,
61401334,161.9,2026-07-02T20:27:19.077,Ampol Foodary Stafford,3421066,-27.411093,153.023635,4053,ChIJAQT9By9YkWsRamqZAebQyHU,North,2026-07-03 22:01:57,QLD,,
61401341,159.9,2026-07-02T04:49:49.647,Caltex Clayfield,2,-27.427403,153.050405,4011,ChIJO3y9Yq1ZkWsRepO6QV6inY4,North,2026-07-03 22:01:57,QLD,,
61401343,159.5,2026-07-02T21:18:36,Liberty Grange,86,-27.424641,153.014052,4051,ChIJ-RW88n1XkWsR8zvsSTzIERA,North,2026-07-03 22:01:57,QLD,,
61401344,159.7,2026-07-02T21:22:05,Caltex Grange,2,-27.426624,153.017032,4051,ChIJOW4SUtZZkWsRcr87CwOOwjk,North,2026-07-03 22:01:57,QLD,,
61401347,161.9,2026-07-03T11:55:19.44,BP Windsor,5,-27.43604130193541,153.03187014847944,4030,ChIJg5NGO8RZkWsRRs6wceKWEGk,North,2026-07-03 22:01:57,QLD,,
61401348,161.3,2026-07-02T20:17:19.14,U-Go Lutwyche,3421183,-27.425953,153.032041,4030,ChIJIUIVC8xZkWsRy4B4Ze10oGU,North,2026-07-03 22:01:57,QLD,,
61401349,159.9,2026-07-03T01:35:00,7-Eleven Albion,113,-27.4289939652634,153.036903,4010,ChIJmbEbk8lZkWsRJPhgf2VF04k,North,2026-07-03 22:01:57,QLD,,
61401353,161.9,2026-07-03T11:55:19.44,BP Connect Hamilton,5,-27.439652,153.049148,4007,ChIJMwuSJbtZkWsROTxbuKtjHH4,North,2026-07-03 22:01:57,QLD,,
61401357,159.9,2026-07-03T01:35:00,7-Eleven Ascot,113,-27.428241,153.062278,4007,ChIJI1W5BgBZkWsRbfXsDZgDGMo,North,2026-07-03 22:01:57,QLD,,
61401359,163.9,2026-07-02T20:42:17.843,Ampol Eagle Farm,3421066,-27.434674,153.079056,4009,ChIJO59fPBxZkWsRaD1B3dCNDbY,North,2026-07-03 22:01:57,QLD,,
61401365,155.9,2026-06-26T21:45:42,BP Lindum,5,-27.443116,153.143691,4178,ChIJYSxUMB1fkWsR8Xhou68mOMk,North,2026-07-03 22:01:57,QLD,,
61401366,161.9,2026-07-02T20:00:35.31,Shell Reddy Express Wynnum,3421193,-27.443582,153.157939,4178,ChIJ_yNNOKpfkWsRiacG2Uq4Z1U,North,2026-07-03 22:01:57,QLD,,
61401367,163.9,2026-07-03T03:34:02.713,Caltex Wynnum West,2,-27.459016,153.151452,4178,ChIJJfRMI_dekWsRxk2hcx13yVk,North,2026-07-03 22:01:57,QLD,,
61401371,159.9,2026-07-01T22:31:54.053,Caltex Wynnum,2,-27.45463473648407,153.16652018650822,4178,ChIJH1hEGlJekWsR8GiekfCO5x0,North,2026-07-03 22:01:57,QLD,,
61401373,161.9,2026-07-03T11:55:19.44,BP Manly,5,-27.457538,153.178798,4179,ChIJA6fH9UlekWsRjfwfxMxWZ84,North,2026-07-03 22:01:57,QLD,,
61401375,159.9,2026-07-02T19:23:00,7-Eleven The Gap,113,-27.442904,152.943808,4061,ChIJVeRcjLVWkWsR3M1v4PL193w,North,2026-07-03 22:01:57,QLD,,
61401377,159.9,2026-07-03T11:55:19.44,BP The Gap,5,-27.446887,152.959528,4061,ChIJIzDcTptXkWsRtG89qfGa-Ik,North,2026-07-03 22:01:57,QLD,,
61401380,159.9,2026-07-02T19:23:00,7-Eleven Ashgrove,113,-27.445996,152.991244,4060,ChIJEc42_DdXkWsRwOVTIsg1K3A,North,2026-07-03 22:01:57,QLD,,
61401382,159.9,2026-07-02T18:41:27.35,BP Ashgrove (Waterworks Rd),5,-27.446283,152.997578,4060,ChIJG3I650VXkWsRIMSTJysRtY4,North,2026-07-03 22:01:57,QLD,,
61401386,179.9,2026-06-18T06:48:52.327,Bizzells Garage Paddington,12,-27.459076,152.998383,4064,ChIJUeBwR7NQkWsR8BsXEmf7w3g,North,2026-07-03 22:01:57,QLD,,
61401391,161.9,2026-07-02T20:32:16.893,Ampol Foodary Toowong,3421066,-27.478292616581154,152.98579629447744,4066,ChIJK6VaGupQkWsRMHqWzZOaeXg,South,2026-07-03 22:01:57,QLD,,
61401393,161.9,2026-07-02T20:15:36.14,Shell Reddy Express Milton,3421193,-27.473913230061896,153.00392841104505,4064,ChIJPYHZx6RQkWsR0hSEGrZFrik,South,2026-07-03 22:01:57,QLD,,
61401398,161.9,2026-07-02T20:00:35.31,Shell Reddy Express Mount Gravatt,3421193,-27.542090460066003,153.082005,4122,ChIJ5zcHRj5bkWsRtUE14jlmmks,South,2026-07-03 22:01:57,QLD,,
61401399,161.9,2026-07-03T06:12:00,7-Eleven Mt Gravatt East,113,-27.531577,153.093146,4122,ChIJbazs0HFbkWsRwnbctOHBoro,South,2026-07-03 22:01:57,QLD,,
61401409,157.9,2026-07-02T22:32:17,Metro Petroleum Thornlands,57,-27.548071,153.265178,4164,ChIJP61aDNtnkWsRgkhh5ekZtAM,South,2026-07-03 22:01:57,QLD,,
61401411,177.9,2026-07-02T20:27:19.077,Ampol Foodary Jindalee,3421066,-27.536514,152.941898,4074,ChIJXf-nGh9OkWsRPX9xo2nJNLI,South,2026-07-03 22:01:57,QLD,,
61401413,166.9,2026-07-03T00:25:35.617,BP Riverhills,5,-27.556355,152.914572,4074,ChIJKw2QYtlNkWsRsAJvxmIkYqg,South,2026-07-03 22:01:57,QLD,,
61401417,169.9,2026-07-01T14:18:20.233,BP Oxley,5,-27.553377,152.979052,4075,ChIJESDz9s9PkWsRVFH3LLGtbF0,South,2026-07-03 22:01:57,QLD,,
61401421,163.5,2026-06-29T06:25:09.69,Freedom Fuels Inala,110,-27.577748,152.973748,4077,ChIJQcslUalPkWsR-zd7-pnc05g,South,2026-07-03 22:01:57,QLD,,
61401422,165.9,2026-07-03T01:40:00,7-Eleven Durack,113,-27.579387,152.974637,4077,ChIJTT33aalPkWsRS5RheOuRmco,South,2026-07-03 22:01:57,QLD,,
61401426,161.9,2026-07-02T20:00:35.31,Shell Reddy Express Granard Rd,3421193,-27.558051,153.015628,4106,ChIJn_lnu1dFkWsR3hKuZ9MZMsE,South,2026-07-03 22:01:57,QLD,,
61401427,161.9,2026-07-03T00:41:53.917,Pacific Fuel Solutions Rocklea,3421162,-27.558117,153.006258,4106,ChIJRe966fBPkWsReVEX4C8Z8Ag,South,2026-07-03 22:01:57,QLD,,
61401428,161.9,2026-07-02T20:00:35.31,Shell Reddy Express Rocklea,3421193,-27.560256,153.000988,4106,ChIJ8xczXO5PkWsRws03bhExQfg,South,2026-07-03 22:01:57,QLD,,
61401431,159.9,2026-06-26T02:20:05.57,NightOwl BP Salisbury,5,-27.545888,153.038591,4107,ChIJ24NBwmhbkWsR5IpfmXZbYxM,South,2026-07-03 22:01:57,QLD,,
61401436,161.5,2026-07-02T23:52:32.437,NightOwl BP Sunnybank,5,-27.566916,153.064574,4109,ChIJ0_23_9ZEkWsRMELaFeQkq1s,South,2026-07-03 22:01:57,QLD,,
61401438,161.9,2026-07-02T20:00:35.31,Shell Reddy Express Sunnybank,3421193,-27.575889,153.062992,4109,ChIJMU62Q99EkWsRG4pUaEIlfKM,South,2026-07-03 22:01:57,QLD,,
61401440,155.9,2026-07-02T19:42:22.677,Metro Petroleum Sunnybank,57,-27.57032397205679,153.055617,4109,ChIJb_CfAQBFkWsRiqVDyUOV71s,South,2026-07-03 22:01:57,QLD,,
61401441,161.9,2026-07-03T01:37:00,7-Eleven Acacia Ridge,113,-27.589068,153.027286,4110,ChIJtRqtU3dFkWsREFPYb2PDV2M,South,2026-07-03 22:01:57,QLD,,
61401444,161.9,2026-07-03T01:37:00,7-Eleven Acacia Ridge East,113,-27.575428,153.039586,4110,ChIJu3M3XBVFkWsRbMle5BF2TTs,South,2026-07-03 22:01:57,QLD,,
61401445,161.9,2026-07-03T02:40:00,7-Eleven Wishart,113,-27.556364,153.089765,4122,ChIJ562QF0lbkWsR09235KSctBg,South,2026-07-03 22:01:57,QLD,,
61401446,159.9,2026-07-03T00:25:35.617,BP Wishart,5,-27.561518,153.089268,4122,ChIJxy6JCEtbkWsR0Xi-YHz41LE,South,2026-07-03 22:01:57,QLD,,
61401447,161.9,2026-07-02T22:14:00,EG Ampol Macgregor,3421073,-27.562252,153.074394,4109,ChIJnRB3Q81EkWsRF6qgxOj2NDM,South,2026-07-03 22:01:57,QLD,,
61401448,161.9,2026-07-02T20:05:26.533,Shell Reddy Express Kessels Rd,3421193,-27.561152,153.078726,4122,ChIJraoKTzNbkWsRX-Y_slDOx-Y,South,2026-07-03 22:01:57,QLD,,
61401450,161.9,2026-07-03T06:04:24.323,Caltex Eight Mile Plains,2,-27.575212,153.091639,4113,ChIJSbD-qLBEkWsRfO7_tz04sv8,South,2026-07-03 22:01:57,QLD,,
61401453,161.5,2026-07-01T23:17:04.233,OOM Energy Underwood,12,-27.598823,153.109346,4119,ChIJNd7TsZFDkWsRHaDUDL3sgOE,South,2026-07-03 22:01:57,QLD,,
61401457,161.9,2026-07-03T06:29:00,7-Eleven North Ipswich,113,-27.603119,152.761629,4305,ChIJW3rkA2q0lmsRF2KD8ON8mZY,South,2026-07-03 22:01:57,QLD,,
61401460,160.9,2026-07-03T01:38:00,7-Eleven Dinmore,113,-27.598004,152.832107,4303,ChIJ-ecJ3lVLkWsRoq6J06TJvoI,South,2026-07-03 22:01:57,QLD,,
61401461,161.5,2026-07-02T19:48:00.17,Freedom Fuels Ipswich,110,-27.601119,152.826338,4304,ChIJoTMVqqy0lmsR2Jtf-VqtMnw,South,2026-07-03 22:01:57,QLD,,
61401462,162.9,2026-07-02T20:42:17.857,Ampol Foodary Goodna,3421066,-27.608598,152.897931,4300,ChIJoeSxxQpMkWsRlxQh370RNBA,South,2026-07-03 22:01:57,QLD,,
61401471,165.9,2026-07-03T01:40:00,7-Eleven Algester,113,-27.612647,153.039653,4115,ChIJEfVB5r1FkWsRSHGSmh7gkaQ,South,2026-07-03 22:01:57,QLD,,
61401472,163.9,2026-07-03T03:43:54,Caltex Stretton,2,-27.61142680060479,153.0635548637543,4116,ChIJJ6VtllJEkWsReuQ5cSnN_Nc,South,2026-07-03 22:01:57,QLD,,
61401473,161.9,2026-07-02T20:00:35.31,Shell Reddy Express Woodridge,3421193,-27.624443,153.116876,4114,ChIJVUoSbI9DkWsRt5J1NaBvxNU,South,2026-07-03 22:01:57,QLD,,
61401477,165.9,2026-07-03T01:40:00,7-Eleven Springwood,113,-27.61011953521952,153.12405772883605,4127,ChIJsU8_3HZDkWsRxfH1cCI4xJU,South,2026-07-03 22:01:57,QLD,,
61401478,161.9,2026-07-02T20:00:35.31,Shell Reddy Express Springwood,3421193,-27.63364586120715,153.13148941964337,4127,ChIJO9FzsJVDkWsRKOz74KISMts,South,2026-07-03 22:01:57,QLD,,
61401479,161.9,2026-07-03T01:37:00,7-Eleven Woodridge,113,-27.619142,153.104903,4114,ChIJKZQRqHlEkWsRXqQbxTyKOG4,South,2026-07-03 22:01:57,QLD,,
61401480,161.9,2026-07-02T20:05:26.533,Shell Reddy Express Daisy Hill,3421193,-27.644857,153.153469,4127,ChIJfQwO-cpDkWsRP1C645DxVqg,South,2026-07-03 22:01:57,QLD,,
61401483,161.9,2026-07-03T01:37:00,7-Eleven Logan City,113,-27.641222,153.107393,4114,ChIJ_VfcSQhEkWsRAtyDigaYnFM,South,2026-07-03 22:01:57,QLD,,
61401485,157.9,2026-07-02T22:19:43,BP Mt Cotton,5,-27.637353,153.239623,4165,ChIJi47xu1JokWsR4_l3Td6KHd4,South,2026-07-03 22:01:57,QLD,,
61401487,169.9,2026-07-01T00:19:22.043,BP Redland Bay,5,-27.606017,153.288087,4165,ChIJqZWzNKhokWsR1iF0gB3zh5g,South,2026-07-03 22:01:57,QLD,,
61401492,157.7,2026-07-02T07:22:35.06,Metro West Ipswich,57,-27.619048,152.749764,4305,ChIJwRU6jDO0lmsRZflGegor9Jg,South,2026-07-03 22:01:57,QLD,,
61401496,166.9,2026-07-02T20:47:18.27,Ampol Foodary Leichhardt,3421066,-27.627612,152.743589,4305,ChIJCWU-7tG1lmsRIjZibSAK7Ho,South,2026-07-03 22:01:57,QLD,,
61401497,155.9,2026-07-03T01:19:14.193,Pacific Petroleum Churchill,2418994,-27.644063607517694,152.75105032638933,4305,ChIJcVsSJdu1lmsR1zOAEcjCiqM,South,2026-07-03 22:01:57,QLD,,
61401500,160.9,2026-07-02T20:22:18.397,Ampol Foodary Booval,3421066,-27.613641,152.792314,4304,ChIJ4WiRje20lmsR9A5X1j40xhg,South,2026-07-03 22:01:57,QLD,,
61401502,160.5,2026-07-03T04:44:55,Metco Silkstone,12,-27.621481,152.789444,4304,ChIJk-Aolfq0lmsRGGlTvqSOyeQ,South,2026-07-03 22:01:57,QLD,,
61401505,157.5,2026-07-02T20:55:05.983,United Yamanto,23,-27.6552275199991,152.74757596772153,4305,ChIJffDWFee1lmsRq2CrKA433RA,South,2026-07-03 22:01:57,QLD,,
61401506,169.9,2026-06-22T04:36:51,BP Yamanto,5,-27.660285,152.740233,4305,ChIJPU-yFvm1lmsRzKGr0Az-N7I,South,2026-07-03 22:01:57,QLD,,
61401507,161.9,2026-07-02T20:00:35.31,Shell Reddy Express Yamanto,3421193,-27.660171,152.739296,4305,ChIJybEfO_m1lmsRnv5eNglSgqw,South,2026-07-03 22:01:57,QLD,,
61401508,161.9,2026-07-03T01:37:00,7-Eleven Redbank Plains,113,-27.644962,152.871677,4301,ChIJ534fjQBLkWsRpbeyTMyTKso,South,2026-07-03 22:01:57,QLD,,
61401510,152.9,2026-07-02T00:02:39,Speed Fuel Kingston,12,-27.658841,153.116903,4114,ChIJbYFeXFZBkWsRqAprk14lpsA,South,2026-07-03 22:01:57,QLD,,
61401512,161.9,2026-07-03T01:32:00,7-Eleven Marsden,113,-27.680481,153.114522,4132,ChIJu9TSYjZBkWsRA5pdZdAFJm0,South,2026-07-03 22:01:57,QLD,,
61401514,162.9,2026-07-02T20:27:19.077,Ampol Foodary Waterford,3421066,-27.691549,153.134431,4133,ChIJ8zqp8hdBkWsRx9b4Ne0lt6o,South,2026-07-03 22:01:57,QLD,,
61401517,161.9,2026-07-02T20:05:26.533,Shell Reddy Express Loganholme,3421193,-27.663192,153.177483,4129,ChIJdcItJiJCkWsR02wmPisL4t8,South,2026-07-03 22:01:57,QLD,,
61401523,163.9,2026-07-02T20:22:18.397,Ampol Foodary Carseldine,3421066,-27.342121,153.010681,4034,ChIJQ817ii39k2sRa2YSmPiqHTw,North,2026-07-03 22:01:57,QLD,,
61401524,161.9,2026-07-02T20:32:16.893,Ampol Foodary Alexandra Hills,3421066,-27.52262732061367,153.2196999651111,4161,ChIJMSsz0UNnkWsRWh0D9awDbco,South,2026-07-03 22:01:57,QLD,,
61401530,161.9,2026-07-02T20:05:26.533,Shell Reddy Express Coorparoo,3421193,-27.496996,153.055324,4151,ChIJzS12TUlakWsR2Bi9T5MCsI4,South,2026-07-03 22:01:57,QLD,,
61401531,161.9,2026-07-02T20:00:35.31,Shell Reddy Express Alexandra Hills,3421193,-27.521101,153.211992,4161,ChIJTXX1_1xnkWsRNJHj7fgppFk,South,2026-07-03 22:01:57,QLD,,
61401534,161.9,2026-07-02T20:00:35.31,Shell Reddy Express Rochedale,3421193,-27.595573,153.121562,4123,ChIJixIPjGhDkWsRO1SEeo1lgEA,South,2026-07-03 22:01:57,QLD,,
61401535,161.9,2026-07-02T20:15:36.14,Shell Reddy Express Calamvale,3421193,-27.632655,153.047203,4116,ChIJFeDVHttFkWsR6Cozjn0wYVE,South,2026-07-03 22:01:57,QLD,,
61401537,161.9,2026-07-02T20:00:35.31,Shell Reddy Express Virginia,3421193,-27.369917,153.061735,4014,ChIJafsseWLik2sRKVXU5l-E3c4,North,2026-07-03 22:01:57,QLD,,
61401541,162.9,2026-07-02T20:37:18.557,Ampol Foodary Hamilton,3421066,-27.438408,153.066889,4007,ChIJudwQcgZZkWsRDxvrtoLgtPA,North,2026-07-03 22:01:57,QLD,,
61401543,167.9,2026-07-03T06:45:00,7-Eleven Kensington Hills,113,-27.296911,152.975214,4500,ChIJsRbhPYz8k2sRV2sdEjjgzGc,North,2026-07-03 22:01:57,QLD,,
61401544,161.9,2026-07-03T11:55:19.44,BP Connect Bowen Bridge,5,-27.44523630788419,153.02938104662704,4006,ChIJPwV6rOlZkWsRhp5bhOwE7hE,North,2026-07-03 22:01:57,QLD,,
61401545,159.5,2026-06-23T06:30:22.9,Freedom Fuels Mt Gravatt,110,-27.536391,153.087947,4122,ChIJ7Rr8fGtbkWsRRh0O1Nr4sgg,South,2026-07-03 22:01:57,QLD,,
61401546,161.9,2026-07-03T11:55:19.44,BP Connect Springwood,5,-27.622437,153.127984,4127,ChIJ8S5gA-YUkWsR-d8BL2tVDgg,South,2026-07-03 22:01:57,QLD,,
61401547,161.9,2026-07-03T01:37:00,7-Eleven Kingston,113,-27.644668,153.118247,4114,ChIJtUzPe_BDkWsR7w70GTNxol4,South,2026-07-03 22:01:57,QLD,,
61401550,167.5,2026-06-30T18:35:53.05,Caltex Rochedale,2,-27.580123,153.124691,4123,ChIJdcXDKKlDkWsR4CQ9Avs-kTQ,South,2026-07-03 22:01:57,QLD,,
61401551,161.9,2026-07-02T22:42:00,EG Ampol Kenmore,3421073,-27.507567,152.940427,4069,ChIJwXLmWpRRkWsR-XS-BGmWzDo,South,2026-07-03 22:01:57,QLD,,
61401554,161.9,2026-07-02T20:05:26.533,Shell Reddy Express Holland Park,3421193,-27.526712,153.055956,4121,ChIJOV3hgORakWsRNfceM-8t5jY,South,2026-07-03 22:01:57,QLD,,
61401555,165.5,2026-06-30T18:44:21.53,Caltex Woodridge,2,-27.627909,153.117731,4114,ChIJlwO6io5DkWsRennw6Fhd-60,South,2026-07-03 22:01:57,QLD,,
61401560,161.9,2026-07-02T22:19:10.517,Caltex Kalinga,2,-27.410487,153.047567,4030,ChIJLTnY8ERYkWsREANPEknovK0,North,2026-07-03 22:01:57,QLD,,
61401561,161.9,2026-07-02T20:00:35.31,Shell Reddy Express Kippa-Ring,3421193,-27.229066920171583,153.08538009325412,4021,ChIJ8f6p1ZLlk2sRnnNJroUBrSc,North,2026-07-03 22:01:57,QLD,,
61401569,161.9,2026-07-02T20:05:26.533,Shell Reddy Express Marsden,3421193,-27.680743,153.092073,4132,ChIJC6J1X8RGkWsRqVSK8sfNyMQ,South,2026-07-03 22:01:57,QLD,,
61401588,161.9,2026-07-03T01:38:00,7-Eleven Victoria Point,113,-27.584259,153.281142,4165,ChIJdWW_dBNmkWsRPWw-4FeS3_A,South,2026-07-03 22:01:57,QLD,,
61401590,161.5,2026-07-03T11:10:04.543,Caltex Wilston,2,-27.435847,153.014906,4051,ChIJvVHk7Z1ZkWsRnWbP_CvOIfk,North,2026-07-03 22:01:57,QLD,,
61401591,165.9,2026-07-03T06:00:03.913,Caltex Mango Hill,2,-27.226363,153.036006,4509,ChIJn-XMpGrlk2sRvu-jochOpww,North,2026-07-03 22:01:57,QLD,,
61401599,159.5,2026-07-02T20:37:43.54,Freedom Fuels Redbank Plains,110,-27.627512,152.874514,4301,ChIJOVRGoAVLkWsRGpZtJx_LmoM,South,2026-07-03 22:01:57,QLD,,
61401602,159.9,2026-07-03T03:47:00,7-Eleven Browns Plains,113,-27.664021,153.063245,4118,ChIJTSdU2yZHkWsRwz0T-8bF_lg,South,2026-07-03 22:01:57,QLD,,
61401603,161.9,2026-07-02T23:51:59.89,Caltex Chandler,2,-27.517268,153.183284,4155,ChIJlThKvZpdkWsRXiS5iXL4Ess,South,2026-07-03 22:01:57,QLD,,
61401605,169.9,2026-07-01T21:30:31.063,BP Annerley,5,-27.522428,153.025696,4103,ChIJs8Z3EZpakWsRqzBmthwf_TQ,South,2026-07-03 22:01:57,QLD,,
61401606,157.5,2026-07-02T22:28:08,Liberty Deception Bay,86,-27.205038,153.038413,4508,ChIJLRgtTfXvk2sRu59slGxQeqE,North,2026-07-03 22:01:57,QLD,,
61401613,161.9,2026-07-02T20:17:19.14,U-Go Cleveland,3421183,-27.53260236370942,153.26623918650816,4163,ChIJy9pXtMNmkWsR2xBUPrfJLQ4,South,2026-07-03 22:01:57,QLD,,
61401616,159.9,2026-07-03T01:35:00,7-Eleven Browns Plain,113,-27.664026,153.061551,4118,ChIJRYkbLGBGkWsRt7JEN-XzA0I,South,2026-07-03 22:01:57,QLD,,
61401620,159.5,2026-07-02T20:17:19.14,U-Go Loganholme,3421183,-27.663087497535884,153.17983496197124,4129,ChIJF6H8oBhCkWsRTE2H09riFgc,South,2026-07-03 22:01:57,QLD,,
61401621,161.9,2026-07-03T01:37:00,7-Eleven Woodridge,113,-27.620499,153.115408,4114,ChIJyzSeLIRDkWsR2NuI8v-geMs,South,2026-07-03 22:01:57,QLD,,
61401625,157.5,2026-07-02T07:51:14.06,Solo Rocklea,3421230,-27.54085919169559,153.0089030932541,4106,ChIJ00pRGARQkWsRsbGzaFqe3Mo,South,2026-07-03 22:01:57,QLD,,
61401641,162.9,2026-07-02T20:52:18.277,Ampol Foodary Carina,3421066,-27.495853,153.093435,4152,ChIJM5IQQexbkWsRiuV_Y50I5VA,South,2026-07-03 22:01:57,QLD,,
61401642,159.5,2026-07-03T06:27:04.053,Freedom Fuels Ningi,110,-27.065563,153.112506,4511,ChIJFzHL5F7rk2sR7JhCZoQgFKg,North,2026-07-03 22:01:57,QLD,,
61401643,162.9,2026-07-02T20:22:18.397,Ampol Foodary Samford,3421066,-27.373408,152.886201,4520,ChIJLVIVaqNVkWsRD_gbqxDTmsY,North,2026-07-03 22:01:57,QLD,,
61401658,161.5,2026-07-03T10:32:21,Indus Fuel Bribie island,12,-27.080478,153.173647,4507,ChIJ0wDGHsLqk2sRMaD2vfGoBgg,North,2026-07-03 22:01:57,QLD,,
61401667,155.9,2026-07-03T04:06:49,Raceview Fuels,12,-27.63233835956184,152.77083162577765,4305,ChIJY0r6Kqy1lmsRiVOJMGT-vcU,South,2026-07-03 22:01:57,QLD,,
61401670,165.9,2026-07-03T00:18:08,Ampol Redbank,3421066,-27.600518,152.870193,4301,ChIJG5ZVH4FMkWsRqAMd6CFxdBs,South,2026-07-03 22:01:57,QLD,,
61401680,159.7,2026-07-02T21:21:33.81,BP Grange,5,-27.426073,153.013055,4051,ChIJRWnJU9ZZkWsRKU2FhzsPXQM,North,2026-07-03 22:01:57,QLD,,
61401682,163.9,2026-07-02T20:47:18.27,Ampol Foodary Blacksoil,3421066,-27.579766,152.716439,4306,ChIJaT-lHrG2lmsRveR1k2-7DS8,South,2026-07-03 22:01:57,QLD,,
61401683,191.9,2026-07-02T20:22:18.397,Ampol Foodary Burpengary,3421066,-27.156263,152.977055,4505,ChIJvRoXoFHwk2sRHu0SoMvKp_A,North,2026-07-03 22:01:57,QLD,,
61401684,163.9,2026-07-03T05:46:56.71,Caltex Dutton Park,2,-27.498485,153.027857,4102,ChIJt9n6FWVakWsR7UycnGPqKnU,South,2026-07-03 22:01:57,QLD,,
61401685,163.9,2026-07-02T06:00:07.04,Caltex Graceville,2,-27.524837,152.980789,4075,ChIJs3l28zlQkWsRKD4z4seHaPs,South,2026-07-03 22:01:57,QLD,,
61401687,166.9,2026-07-03T06:05:08.967,NightOwl Caltex Enoggera,2,-27.425202,152.990017,4051,ChIJL12evxJXkWsRNARwTpS-VkY,North,2026-07-03 22:01:57,QLD,,
61401690,160.9,2026-06-23T21:52:20.353,BP Clontarf,5,-27.234738,153.087208,4019,ChIJR91AHOvlk2sRVc4TfVg8QE8,North,2026-07-03 22:01:57,QLD,,
61401691,159.5,2026-07-02T20:40:08.903,Freedom Fuels Brendale,110,-27.317652,152.987865,4500,ChIJM6JM_eb8k2sRKfkcXpdgnWg,North,2026-07-03 22:01:57,QLD,,
61401700,156.9,2026-07-02T04:52:39,Metro Petroleum Acacia Ridge,57,-27.588318,153.027937,4110,ChIJq8c3t3BFkWsRbMFRab85Yxk,South,2026-07-03 22:01:57,QLD,,
61401703,161.5,2026-07-03T07:31:45,Pearl Energy Willawong,3421139,-27.594515343499236,153.00412895337297,4110,ChIJuXdCjHlPkWsR1UkkJAlTaNI,South,2026-07-03 22:01:57,QLD,,
61401710,161.5,2026-07-01T23:06:45.5,Mega Fuels Rocklea,12,-27.546591,153.010459,4106,ChIJv6LmwgFQkWsRwVnwmU7Ey70,South,2026-07-03 22:01:57,QLD,,
61401711,157.5,2026-07-02T20:46:49,Liberty Yamanto,86,-27.662759,152.728866,4305,ChIJpVylOf7JlmsRaWxBcWnm3vk,South,2026-07-03 22:01:57,QLD,,
61401718,162.7,2026-07-02T03:45:34.727,Moorooka Servo,86,-27.545176,153.020003,4105,ChIJw-3q7KtakWsRJmLXUMKlN-w,South,2026-07-03 22:01:57,QLD,,
61401722,159.5,2026-07-02T19:24:00.687,Freedom Fuels Goodna,110,-27.606207,152.903825,4300,ChIJk8ItAAxMkWsRcFJVOLmgY00,South,2026-07-03 22:01:57,QLD,,
61401723,161.9,2026-07-02T20:27:19.077,Ampol Foodary Capalaba,3421066,-27.531502,153.197563,4157,ChIJI-6GsohdkWsRJIRZdezKGmQ,South,2026-07-03 22:01:57,QLD,,
61401725,171.9,2026-07-03T01:29:44.207,Caltex Wacol,2,-27.604324,152.932499,4076,ChIJoTaN1LpOkWsRYglnWnFRye0,South,2026-07-03 22:01:57,QLD,,
61401727,179.9,2026-07-03T01:14:34.703,BP Sandgate,5,-27.315559,153.061062,4017,ChIJc1WpkXXjk2sR8R_JhsUxqLo,North,2026-07-03 22:01:57,QLD,,
61401728,159.9,2026-06-27T23:13:38,BP Holland Park,5,-27.514233,153.054808,4121,ChIJB5yWvvhakWsRw895gfOmDQI,South,2026-07-03 22:01:57,QLD,,
61401729,161.5,2026-07-02T19:36:31.983,Freedom Fuels Victoria Point,110,-27.584835,153.301205,4165,ChIJqbeyOd5lkWsRe3a1PW_KsKU,South,2026-07-03 22:01:57,QLD,,
61401730,156.9,2026-07-03T00:10:40.1,Quill Petroleum,12,-27.455124731985503,153.0070409067459,4059,ChIJfYYpw1NXkWsRYAq5wdmIQGM,North,2026-07-03 22:01:57,QLD,,
61401733,163.9,2026-06-30T21:27:13.297,Caltex Narangba,2,-27.197201,152.984309,4504,GhIJjZduEoMyO8ARaJHtfH8fY0A,North,2026-07-03 22:01:57,QLD,,
61401734,161.9,2026-07-02T20:00:35.31,Shell Reddy Express Chatswood Road,3421193,-27.633636,153.139502,4127,ChIJH3trFGxDkWsRFp1-wlFAnJw,South,2026-07-03 22:01:57,QLD,,
61401737,161.5,2026-07-03T08:12:27,Pearl Energy Durack,3421139,-27.595968,152.987555,4077,ChIJnVcQAUxPkWsRy8l90HySsTo,South,2026-07-03 22:01:57,QLD,,
61401738,161.9,2026-07-02T20:37:18.557,Ampol Foodary Marsden,3421066,-27.679856,153.087847,4132,ChIJYV6wBsNGkWsRmjs_UyzoURw,South,2026-07-03 22:01:57,QLD,,
61401741,159.9,2026-07-02T00:03:41.503,BP Brown Plains,5,-27.662509,153.048088,4118,ChIJtdiP4-9HkWsR14JrXqa8SWY,South,2026-07-03 22:01:57,QLD,,
61401743,161.9,2026-07-02T20:00:35.31,Shell Reddy Express Kallangur,3421193,-27.249189,153.000822,4503,ChIJnz65piX7k2sRDgyhocaTR3E,North,2026-07-03 22:01:57,QLD,,
61401744,177.9,2026-07-02T20:32:16.893,Ampol Foodary Sumner Park,3421066,-27.560198,152.935835,4074,ChIJZem08m5OkWsRBQ2LmPIan7w,South,2026-07-03 22:01:57,QLD,,
61401745,167.9,2026-07-02T05:07:28.323,BP Lawnton,5,-27.281581,152.983155,4501,ChIJoYmSF6P9k2sRCFUUqeucfoY,North,2026-07-03 22:01:57,QLD,,
61401748,161.9,2026-07-02T20:22:18.397,Ampol Foodary Hyperdome,3421066,-27.659537,153.168904,4128,ChIJhb68OSVCkWsR1u9XA1TCmrY,South,2026-07-03 22:01:57,QLD,,
61401749,167.9,2026-06-30T20:58:54.093,BP Bowen Hills,5,-27.435613,153.041348,4006,ChIJCw_vyrlZkWsRIoG0Gh3wnY0,North,2026-07-03 22:01:57,QLD,,
61401753,161.9,2026-07-02T20:05:26.533,Shell Reddy Express Goodna,3421193,-27.600625,152.883996,4300,ChIJeWTM3-NLkWsRpl4pVDcJ0C0,South,2026-07-03 22:01:57,QLD,,
61401754,165.9,2026-07-02T20:27:19.09,Ampol Foodary Wishart,3421066,-27.548472,153.107989,4122,ChIJXdUMm19bkWsRdf6mfXdnFyY,South,2026-07-03 22:01:57,QLD,,
61401755,161.9,2026-07-02T20:27:19.09,Ampol Foodary Waterford West,3421066,-27.681393,153.114674,4133,ChIJb8doPTRBkWsRpnEk1T0J6WA,South,2026-07-03 22:01:57,QLD,,
61401756,162.9,2026-07-02T20:27:19.09,Ampol Foodary Brassall,3421066,-27.596301,152.745933,4305,ChIJ07-XFhe0lmsRARJfmz8ekDU,South,2026-07-03 22:01:57,QLD,,
61401758,161.9,2026-07-02T20:27:19.09,Ampol Foodary Kingston,3421066,-27.633736,153.119241,4114,ChIJd3EHKPJDkWsRkzfk_bO6SJA,South,2026-07-03 22:01:57,QLD,,
61401759,179.9,2026-07-02T06:40:10,BP Manly West,5,-27.467323,153.154015,4179,ChIJSeRSPfVekWsRXnf1wUjiyQ8,North,2026-07-03 22:01:57,QLD,,
61401761,161.9,2026-07-02T20:00:35.31,Shell Reddy Express Birkdale,3421193,-27.493146,153.216292,4159,ChIJE3b8dbBgkWsR33w0JreIuYg,South,2026-07-03 22:01:57,QLD,,
61401766,169.9,2026-07-03T11:55:19.44,BP Wacol Truck Stop,5,-27.593532,152.934594,4076,ChIJvXPOFpdOkWsRCiGQt608IYY,South,2026-07-03 22:01:57,QLD,,
61401768,166.9,2026-07-02T20:42:17.857,Ampol Foodary Churchill,3421066,-27.633441,152.756625,4305,ChIJ7Q3Q5re1lmsR1K2WZJMIKO0,South,2026-07-03 22:01:57,QLD,,
61401769,161.9,2026-07-02T20:20:24.397,Shell Reddy Express Albany Creek,3421193,-27.345888,152.964409,4035,ChIJa_QAlnL9k2sR36cWZd1wE44,North,2026-07-03 22:01:57,QLD,,
61401770,158.5,2026-07-02T23:52:32.437,NightOwl Shell Wakerley,20,-27.493179,153.168917,4154,ChIJ9S0vOL1fkWsRaDm6tKxeW4o,South,2026-07-03 22:01:57,QLD,,
61401772,161.9,2026-07-02T20:27:19.09,Ampol Foodary Slacks Creek,3421066,-27.640701,153.131201,4127,ChIJs3UrgOpDkWsRyMbskNUYUkk,South,2026-07-03 22:01:57,QLD,,
61401773,161.9,2026-07-02T22:45:12.673,United Loganlea,23,-27.667011,153.139313,4131,ChIJ-fwoDGRBkWsR94iijE7S64w,South,2026-07-03 22:01:57,QLD,,
61401774,161.5,2026-07-03T08:06:44,Pearl Energy Rocklea,3421139,-27.557625,153.015262,4106,ChIJ2aOqxVdFkWsRz0VTrS793X8,South,2026-07-03 22:01:57,QLD,,
61401775,161.9,2026-07-02T20:37:18.557,Ampol Foodary Bellbowrie,3421066,-27.562496,152.886875,4070,ChIJk-wF8rJNkWsRl2BbMREoAsQ,South,2026-07-03 22:01:57,QLD,,
61401777,157.5,2026-07-03T00:06:03.123,Liberty Karawatha,86,-27.617782,153.094057,4117,ChIJw69V_xJFkWsRewtg026GFNw,South,2026-07-03 22:01:57,QLD,,
61401778,167.9,2026-07-02T20:27:19.09,Ampol Foodary Camira,3421066,-27.634994,152.916347,4300,ChIJNRayRuFLkWsR0SXn-MLYJjI,South,2026-07-03 22:01:57,QLD,,
61401779,161.9,2026-07-02T20:05:26.55,Shell Reddy Express Cleveland,3421193,-27.535062,153.266974,4163,ChIJOUYkbcJmkWsREE8kgOoniu4,South,2026-07-03 22:01:57,QLD,,
61401780,161.9,2026-07-02T20:00:35.31,Shell Reddy Express Deception Bay,3421193,-27.190235,153.018421,4508,ChIJ9XJfN-Pvk2sRd1SayrCGhjs,North,2026-07-03 22:01:57,QLD,,
61401781,157.5,2026-07-03T00:21:20.08,Liberty Lawnton,86,-27.290068,152.984536,4501,ChIJTaNtRnf9k2sR4FtwuCe3rHM,North,2026-07-03 22:01:57,QLD,,
61401782,161.9,2026-07-02T20:27:19.09,Ampol Foodary Caboolture Travel Centre,3421066,-27.042111,152.975171,4510,ChIJswTzaufyk2sRNbloAmU-FdY,North,2026-07-03 22:01:57,QLD,,
61401856,159.9,2026-06-27T00:40:17.27,Elimbah Service Station and Takeaway,12,-27.007343,152.944651,4516,ChIJU_onA8qMk2sR1bVwd5rSuXE,North,2026-07-03 22:01:57,QLD,,
61401858,156.9,2026-07-03T02:50:09.91,United Caboolture,23,-27.079253,152.951795,4510,ChIJJcwfnLjzk2sRW9Xm1mo34SY,North,2026-07-03 22:01:57,QLD,,
61401861,156.9,2026-07-02T19:14:50.06,ARKO Energy Caboolture,12,-27.084479044851346,152.95795141104506,4510,ChIJ7x3X58jzk2sRqur-Hx1jiGE,North,2026-07-03 22:01:57,QLD,,
61401862,166.9,2026-07-02T20:37:18.557,Ampol Foodary Caboolture,3421066,-27.086965,152.980739,4510,ChIJe5aFPjjyk2sR-Y-r26k6yCI,North,2026-07-03 22:01:57,QLD,,
61401863,157.9,2026-06-28T07:27:19.013,NightOwl Shell Caboolture,20,-27.072592,153.025312,4510,ChIJJVCWEjftk2sRidWht-kr1J4,North,2026-07-03 22:01:57,QLD,,
61401866,161.9,2026-07-02T20:30:32.89,Shell Reddy Express Morayfield,3421193,-27.098137,152.94905576686477,4506,ChIJa7zMJt_zk2sRAodE4_h8QGk,North,2026-07-03 22:01:57,QLD,,
61401868,161.9,2026-07-03T01:37:00,7-Eleven Morayfield,113,-27.112363,152.950651,4506,ChIJaynHT2_xk2sRscfrAxzQEqU,North,2026-07-03 22:01:57,QLD,,
61401881,161.9,2026-07-02T20:27:19.09,Ampol Foodary Rochedale,3421066,-27.595176,153.121695,4123,ChIJkYlCfWhDkWsRwqlMmqOVBo4,South,2026-07-03 22:01:57,QLD,,
61401886,157.9,2026-07-02T20:35:14.63,Liberty Sunnybank Hills,86,-27.602084,153.056501,4109,ChIJZ6wtJKpFkWsRJa_7nUvOldo,South,2026-07-03 22:01:57,QLD,,
61401887,162.9,2026-07-02T20:27:19.09,Ampol Foodary Cleveland Shore St,3421066,-27.524198,153.253795,4163,ChIJte-outlmkWsRBfN_xOXxKd4,South,2026-07-03 22:01:57,QLD,,
61401888,169.9,2026-07-03T06:43:00,7-Eleven Richlands,113,-27.597824,152.949918,4077,ChIJ4RrnJupOkWsRWlnYwUv-O-w,South,2026-07-03 22:01:57,QLD,,
61401894,171.9,2026-07-02T20:27:19.09,Ampol Foodary Lawnton,3421066,-27.281231,152.982252,4501,ChIJvQkofp38k2sRCqxMD2VM9r4,North,2026-07-03 22:01:57,QLD,,
61401899,163.9,2026-07-02T22:13:00,EG Ampol Goodna,3421073,-27.628223,152.883713,4300,ChIJMSNwGJhLkWsRA1ttaz9uPm4,South,2026-07-03 22:01:57,QLD,,
61401905,171.9,2026-07-02T20:27:19.09,Ampol Foodary Richlands,3421066,-27.596746,152.949854,4077,ChIJdRbiLepOkWsREyefWCYXTWE,South,2026-07-03 22:01:57,QLD,,
61401906,161.9,2026-07-03T11:55:19.44,BP Express Eight Mile Plains,5,-27.575708,153.087955,4113,ChIJA3ClOrhEkWsRNR6yuVXuuHU,South,2026-07-03 22:01:57,QLD,,
61401907,157.5,2026-07-03T02:40:10.18,United Bald Hills,23,-27.317756,153.009186,4036,ChIJ587dds78k2sRNeBaT6o4IMA,North,2026-07-03 22:01:57,QLD,,
61401908,161.9,2026-07-02T22:09:00,EG Ampol Virginia,3421073,-27.383445,153.064113,4013,ChIJrSRInoNYkWsRpWhHDexFHx4,North,2026-07-03 22:01:57,QLD,,
61401910,161.9,2026-07-02T20:05:26.55,Shell Reddy Express Runcorn,3421193,-27.610975,153.067873,4113,ChIJi98J9lJEkWsR8r3C4sPGGdI,South,2026-07-03 22:01:57,QLD,,
61401911,161.9,2026-07-02T20:15:36.14,Shell Reddy Express Karalee,3421193,-27.572365,152.791976,4306,ChIJl9WaEW6zlmsRPrctAp6QZxs,South,2026-07-03 22:01:57,QLD,,
61401912,157.5,2026-07-03T00:06:12.61,Liberty Oxley,86,-27.570459356616315,152.9810493558197,4075,ChIJb37hdpVPkWsRFeQxPr7_XIY,South,2026-07-03 22:01:57,QLD,,
61401914,161.9,2026-07-03T01:37:00,7-Eleven Albany Creek,113,-27.363889718122927,153.01311577315525,4034,ChIJmYY4mVL9k2sR9gWkjVoRTh4,North,2026-07-03 22:01:57,QLD,,
61401915,161.9,2026-07-02T22:09:00,EG Ampol Mitchelton,3421073,-27.415386,152.977543,4053,ChIJiczCdgZXkWsRA_ZcZmNemhw,North,2026-07-03 22:01:57,QLD,,
61401916,156.5,2026-07-02T01:36:36,Pearl Energy Acacia Ridge,3421139,-27.580433143071236,153.02631481719666,4110,ChIJuZmYfW9FkWsR2CiEgkl3pNI,South,2026-07-03 22:01:57,QLD,,
61401917,157.5,2026-07-02T20:09:07.82,Freedom Fuels Indooroopilly,110,-27.499065138785195,152.9674647949676,4068,ChIJ-ahwtVRQkWsRvE3sctKOCws,South,2026-07-03 22:01:57,QLD,,
61401919,162.9,2026-07-02T20:22:18.397,Ampol Foodary Woodridge West,3421066,-27.642988,153.100369,4114,ChIJ520enQVEkWsRjYNDfekFjXo,South,2026-07-03 22:01:57,QLD,,
61401921,170.5,2026-07-02T23:23:13.513,Caltex Underwood,2,-27.597516,153.109135,4119,ChIJ-3Aqf2JDkWsRKGJgj04XS8Y,South,2026-07-03 22:01:57,QLD,,
61401922,161.9,2026-07-02T20:27:19.09,Ampol Foodary Caboolture,3421066,-27.085152,152.957808,4510,ChIJgSPKxcjzk2sRS8ss-tdLPOs,North,2026-07-03 22:01:57,QLD,,
61401923,163.9,2026-07-03T01:42:00,7-Eleven Manly West,113,-27.475413,153.165772,4179,ChIJcVuiaGZekWsRG9CvBTImwhU,South,2026-07-03 22:01:57,QLD,,
61401924,170.4,2026-07-02T20:27:19.09,Ampol Foodary Strathpine,3421066,-27.326024,152.979019,4500,ChIJ9ZcX0QL9k2sRH8UuhafEroE,North,2026-07-03 22:01:57,QLD,,
61401926,157.5,2026-07-02T19:31:36.383,Freedom Fuels Karana Downs,110,-27.546897,152.822363,4306,ChIJB5MUFNSylmsRY41ev3mvXtc,South,2026-07-03 22:01:57,QLD,,
61401928,163.9,2026-07-02T20:22:18.397,Ampol Foodary Mackenzie,3421066,-27.547407,153.128337,4156,ChIJj5aqSpRckWsR-nunPDF8IYA,South,2026-07-03 22:01:57,QLD,,
61401929,161.9,2026-07-02T20:00:35.31,Shell Reddy Express Belmont (Qld),3421193,-27.499187,153.126507,4153,ChIJSdrA1RBckWsRPvGYX4ruJ4g,South,2026-07-03 22:01:57,QLD,,
61401930,161.9,2026-07-03T01:37:00,7-Eleven Mackenzie,113,-27.545381,153.121763,4156,ChIJBWbybZdckWsR2mqx8nXIiFM,South,2026-07-03 22:01:57,QLD,,
61401931,159.7,2026-07-02T20:06:30.88,Metro Petroleum Hillcrest,57,-27.676512,153.024581,4118,ChIJg4mk6zNHkWsRJOtHBxmF110,South,2026-07-03 22:01:57,QLD,,
61401934,163.9,2026-07-03T06:00:30.867,Caltex Murrumba Downs,2,-27.264616,153.005048,4503,ChIJN3n6LUj7k2sRJf2bIdeLFxg,North,2026-07-03 22:01:57,QLD,,
61401938,152.9,2026-06-25T03:06:16.76,Metro Petroleum Capalaba,57,-27.521129,153.199215,4157,ChIJUxDXQ-ldkWsRZjgebiwyIPY,South,2026-07-03 22:01:57,QLD,,
61401939,162.9,2026-07-03T11:55:19.44,BP Express Goodna,5,-27.609654,152.902465,4300,ChIJ1cESPApMkWsR80sazDT-WQU,South,2026-07-03 22:01:57,QLD,,
61401941,161.9,2026-07-03T01:37:00,7-Eleven Wynnum,113,-27.446069,153.171941,4178,ChIJUwkw27NfkWsRrhl_eK6d3dk,North,2026-07-03 22:01:57,QLD,,
61401943,167.9,2026-07-02T22:05:00,EG Ampol Browns Plains West,3421073,-27.659403,153.028989,4118,ChIJlwzIzxdGkWsRUs1VDplZDMw,South,2026-07-03 22:01:57,QLD,,
61401945,161.9,2026-07-02T21:20:24.463,Shell Reddy Express Breakfast Creek,3421193,-27.446338,153.042061,4006,ChIJOadBjpVZkWsRLdmXiHeMHmo,North,2026-07-03 22:01:57,QLD,,
61401946,161.9,2026-07-02T20:15:36.14,Shell Reddy Express Marsden Park,3421193,-27.679062,153.118267,4133,ChIJw6n_Ms9BkWsRL15S2ya92gE,South,2026-07-03 22:01:57,QLD,,
61401951,163.9,2026-07-02T22:12:00,EG Ampol Mount Cotton,3421073,-27.561251,153.197803,4157,ChIJi93ILmFdkWsRvZHubYCX3yQ,South,2026-07-03 22:01:57,QLD,,
61401954,163.9,2026-07-02T20:32:16.893,Ampol Foodary Rothwell,3421066,-27.209295,153.042949,4022,ChIJN2EZvGHlk2sRrYpEpuTOWA8,North,2026-07-03 22:01:57,QLD,,
61401956,167.5,2026-06-30T18:46:18.877,Caltex Booval,2,-27.612973,152.798948,4304,ChIJ4T3D2wq1lmsRb1gqN1SdamM,South,2026-07-03 22:01:57,QLD,,
61401959,161.9,2026-07-02T20:45:30.613,Shell Reddy Express Windsor (Qld),3421193,-27.439346,153.030343,4030,ChIJHflOvMNZkWsRKlBneRh41_U,North,2026-07-03 22:01:57,QLD,,
61401964,155.5,2026-07-02T20:32:08.313,Freedom Fuels Eight Mile Plains,110,-27.578537,153.094318,4113,ChIJS4lz_7pEkWsREePkxYD1UjY,South,2026-07-03 22:01:57,QLD,,
61402090,161.9,2026-07-03T01:37:00,7-Eleven Murarrie,113,-27.456902,153.105682,4172,ChIJ0zFLpjVZkWsRGXuo51VMa7o,North,2026-07-03 22:01:57,QLD,,
61402091,165.9,2026-07-03T05:50:00,7-Eleven Bray Park,113,-27.292016,152.954828,4500,ChIJDU3utWj8k2sRQPY7CxQMaH8,North,2026-07-03 22:01:57,QLD,,
61402092,161.9,2026-07-03T01:37:00,7-Eleven Birkdale,113,-27.508734,153.207099,4159,ChIJuwmfjrBgkWsRu8SGU0x_SB4,South,2026-07-03 22:01:57,QLD,,
61402093,161.9,2026-07-02T20:05:26.55,Shell Reddy Express Loganlea,3421193,-27.662597,153.140557,4131,ChIJi0_7XGJBkWsRdH2k351iC-s,South,2026-07-03 22:01:57,QLD,,
61402094,161.9,2026-07-02T22:20:00,EG Ampol Caboolture South - Market Plaza,3421073,-27.09453583645176,152.9511927288361,4510,ChIJPyu1Xm_xk2sR5VNDpWovf_c,North,2026-07-03 22:01:57,QLD,,
61402095,161.9,2026-07-02T20:00:35.327,Shell Reddy Express Deagon,3421193,-27.330699,153.047457,4017,ChIJNTOTBhvjk2sRFpke79ejUXE,North,2026-07-03 22:01:57,QLD,,
61402096,161.9,2026-07-02T20:37:18.557,Ampol Foodary Sunnybank,3421066,-27.584133,153.061878,4109,ChIJi3KW5uFEkWsR70SbPiBI-i4,South,2026-07-03 22:01:57,QLD,,
61402097,159.9,2026-07-03T03:00:14.64,United Virginia,23,-27.377199,153.062259,4014,ChIJq39cxy1GkWsROdT3jD0KF78,North,2026-07-03 22:01:57,QLD,,
61402098,161.9,2026-07-03T05:52:00,7-Eleven Heritage Park,113,-27.673109458819063,153.05285839123795,4118,ChIJR-o--FpGkWsR7Qq-lETpbdA,South,2026-07-03 22:01:57,QLD,,
61402099,161.9,2026-07-02T20:15:36.14,Shell Reddy Express Victoria Point,3421193,-27.596076,153.28593,4165,ChIJ51SgKgVmkWsRJAgwGHxlKhI,South,2026-07-03 22:01:57,QLD,,
61402101,161.9,2026-07-03T06:40:00,7-Eleven Pinelands Road,113,-27.591492,153.060381,4109,ChIJg51rvwJFkWsRfoyF8tNz9gY,South,2026-07-03 22:01:57,QLD,,
61402106,165.9,2026-07-02T22:24:00,EG Ampol Margate,3421073,-27.244479,153.109334,4019,ChIJR4Ewu9_lk2sRgRR8K58IOos,North,2026-07-03 22:01:57,QLD,,
61402107,161.9,2026-07-03T01:37:00,7-Eleven Carina,113,-27.487654,153.100211,4152,ChIJHZ4IVfpbkWsRI7BrWlqxAaA,South,2026-07-03 22:01:57,QLD,,
61402125,163.9,2026-07-02T22:23:00,EG Ampol Acacia Ridge,3421073,-27.575298,153.026169,4110,GhIJaJHtfD-TO8ARDAIrh9YgY0A,South,2026-07-03 22:01:57,QLD,,
61402127,161.9,2026-07-03T01:37:00,7-Eleven Murrumba Downs,113,-27.273405,153.015282,4503,ChIJxTnHMLPkk2sR33cMzHxLVvM,North,2026-07-03 22:01:57,QLD,,
61402131,152.9,2026-07-01T23:49:16,OOM Energy Kingston,12,-27.66240225882411,153.11811118650817,4114,ChIJKT_E1lBBkWsRlrK_MKdiNnI,South,2026-07-03 22:01:57,QLD,,
61402132,169.9,2026-07-01T00:38:10.017,BP Regents Park,5,-27.676907,153.031851,4118,ChIJJ6QIQzFGkWsRs4TO6416yEU,South,2026-07-03 22:01:57,QLD,,
61402202,161.9,2026-07-03T11:55:19.44,BP Archerfield,5,-27.565677,152.998169,4108,ChIJfUNKuexPkWsRaXWc6yJrprE,South,2026-07-03 22:01:57,QLD,,
61402204,161.9,2026-07-03T01:37:00,7-Eleven Boronia Heights,113,-27.678754,153.021806,4118,ChIJBYkJPjNGkWsR3MBPfIMS60g,South,2026-07-03 22:01:57,QLD,,
61402207,167.9,2026-07-03T06:35:46.503,BP Logandale,5,-27.670532,153.200911,4129,ChIJXeFD-gBCkWsRdq5MQ-9TqIc,South,2026-07-03 22:01:57,QLD,,
61402208,161.9,2026-07-03T01:37:00,7-Eleven Bracken Ridge,113,-27.330901,153.025787,4017,ChIJz2PxYijjk2sRQUyM4Zv_EpI,North,2026-07-03 22:01:57,QLD,,
61402209,161.9,2026-07-03T01:37:00,7-Eleven Compton Rd,113,-27.611024,153.062587,4109,ChIJLadIyFJEkWsRfcS4D3oLjb4,South,2026-07-03 22:01:57,QLD,,
61402210,163.9,2026-07-02T22:23:00,EG Ampol Mango Hill,3421073,-27.223195,153.037501,4509,ChIJvQTWyUHlk2sRGBg4teJOLZY,North,2026-07-03 22:01:57,QLD,,
61402211,165.9,2026-07-02T22:15:34,Caltex Wishart,2,-27.550748,153.106439,4122,ChIJB1813yxrbAER97wKLBV5z7w,South,2026-07-03 22:01:57,QLD,,
61402212,161.9,2026-07-02T22:31:00,EG Ampol Capalaba,3421073,-27.514796,153.181279,4157,ChIJhbsC--pdkWsR4yyOdLE8VfI,South,2026-07-03 22:01:57,QLD,,
61402213,175.9,2026-07-02T22:09:00,EG Ampol Forest Lake,3421073,-27.623694,152.969352,4078,ChIJAx377SpPkWsRjLLJR1-BJAo,South,2026-07-03 22:01:57,QLD,,
61402214,161.9,2026-07-02T22:25:00,EG Ampol Yamanto,3421073,-27.661644,152.739343,4305,GhIJFtnO91OpO8ARlUOLbKcXY0A,South,2026-07-03 22:01:57,QLD,,
61402215,169.9,2026-07-03T11:55:19.44,BP Narangba,5,-27.186077,152.934985,4504,ChIJV8YcSgj6k2sRyC97t1PiorA,North,2026-07-03 22:01:57,QLD,,
61402220,161.9,2026-07-03T11:55:19.44,BP Hillcrest,5,-27.674462,153.027669,4118,ChIJl3Bd6jFGkWsRhHE5raJf-sY,South,2026-07-03 22:01:57,QLD,,
61402223,179.9,2026-07-03T03:48:00,EG Ampol Burpengary,3421073,-27.154353,152.974593,4505,ChIJIQV0XVHwk2sRyw8vnUErvgo,North,2026-07-03 22:01:57,QLD,,
61402226,161.9,2026-07-03T01:43:00,S24 The Gap,2,-27.44460750531628,152.952606,4061,ChIJhd-nScxWkWsRS-tovW0IcBI,North,2026-07-03 22:01:57,QLD,,
61402227,161.9,2026-07-03T11:55:19.44,BP Connect Bribie Island,5,-27.063878064409337,153.1555978687172,4507,ChIJu4Yf1Cnrk2sRuA95RwEyM7c,North,2026-07-03 22:01:57,QLD,,
61402231,160.9,2026-07-03T01:38:00,7-Eleven Silkstone,113,-27.621151,152.787974,4304,ChIJeSrzYPq0lmsRp-aaHljFFmA,South,2026-07-03 22:01:57,QLD,,
61402234,163.9,2026-07-02T22:29:00,EG Ampol Booval,3421073,-27.616944,152.790529,4304,ChIJLbFk6_G0lmsR4_VQazxkHn4,South,2026-07-03 22:01:57,QLD,,
61402237,161.9,2026-07-02T22:26:00,EG Ampol Alexandra Hills,3421073,-27.525038,153.221226,4161,ChIJMSsz0UNnkWsRKLhn1EN0hR4,South,2026-07-03 22:01:57,QLD,,
61402245,161.9,2026-07-03T11:55:19.44,BP Capalaba South,5,-27.534996,153.206193,4157,ChIJt56tIn1nkWsRJJ_v-xZIbgY,South,2026-07-03 22:01:57,QLD,,
61402246,169.9,2026-07-02T22:33:00,EG Ampol Browns Plains,3421073,-27.663979,153.042319,4118,ChIJu8uEOkBGkWsRLxBZ1iObuCo,South,2026-07-03 22:01:57,QLD,,
61402247,152.9,2026-07-01T06:05:21.673,Metro Petroleum Marsden,57,-27.678204,153.082353,4132,ChIJRy1pp-lGkWsRu7DSSxupmyI,South,2026-07-03 22:01:57,QLD,,
61402254,171.9,2026-07-03T05:38:00,7-Eleven River Hills,113,-27.561775,152.921734,4074,ChIJYQ_eGHhOkWsRRGny32tRVAw,South,2026-07-03 22:01:57,QLD,,
61402262,159.9,2026-07-02T19:23:00,7-Eleven Bellbird Park,113,-27.645055,152.872371,4300,ChIJ534fjQBLkWsRpbeyTMyTKso,South,2026-07-03 22:01:57,QLD,,
61402338,161.9,2026-07-03T01:37:00,7-Eleven Brassall,113,-27.593686,152.745885,4305,ChIJxTgawRC0lmsRwtw69JCnGAU,South,2026-07-03 22:01:57,QLD,,
61402344,181.9,2026-07-02T23:12:18.89,Ampol Hemmant,3421066,-27.430687,153.133072,4174,ChIJuZaj5hdfkWsRn4tuvhv5_oU,North,2026-07-03 22:01:57,QLD,,
61402345,161.9,2026-07-03T11:55:19.44,BP Connect Caboolture South,5,-27.123314,152.978186,4510,ChIJNWT_8pnxk2sRWjmCfi0wsB4,North,2026-07-03 22:01:57,QLD,,
61402348,161.9,2026-07-03T11:55:19.44,BP Connect Caboolture North,5,-27.124577,152.976285,4510,ChIJ_3Glj8rBeGkRHTS3lFANznA,North,2026-07-03 22:01:57,QLD,,
61402350,159.9,2026-07-03T03:35:00,7-Eleven Coopers Plains,113,-27.563861,153.039813,4108,ChIJdXV98zdFkWsRYjL3RfrcUWU,South,2026-07-03 22:01:57,QLD,,
61402356,165.9,2026-07-02T22:16:00,EG Ampol Keperra,3421073,-27.417028,152.949281,4054,GhIJVOOlm8RqO8ARtch2vl8eY0A,North,2026-07-03 22:01:57,QLD,,
61402359,161.9,2026-07-02T22:12:00,EG Ampol Cannon Hill,3421073,-27.471036,153.104019,4170,ChIJ2Z0aLApZkWsRsx52yZYOrhs,South,2026-07-03 22:01:57,QLD,,
61402362,165.9,2026-07-02T22:07:00,EG Ampol Brookside,3421073,-27.409841,152.981438,4053,ChIJYXzN-6dXkWsR1RRvs8zVhvQ,North,2026-07-03 22:01:57,QLD,,
61402365,175.9,2026-07-03T05:56:00,7-Eleven Jindalee,113,-27.536357,152.948876,4074,ChIJJ0pXwSBOkWsRoIQvE0PN89g,South,2026-07-03 22:01:57,QLD,,
61402386,157.5,2026-07-03T00:16:03.76,Liberty Taigum,86,-27.349745,153.038003,4034,ChIJ5dUYHMLjk2sRCjKjhA01Qps,North,2026-07-03 22:01:57,QLD,,
61402388,159.5,2026-07-03T07:30:21,Pearl Energy Deagon,3421139,-27.328365,153.053801,4017,ChIJk8DdYg_jk2sRVt-m5onn-cY,North,2026-07-03 22:01:57,QLD,,
61402390,165.9,2026-07-02T22:07:00,EG Ampol Oxley,3421073,-27.572194,152.981702,4075,ChIJOx177rpPkWsRXwwzAIXG9oo,South,2026-07-03 22:01:57,QLD,,
61402391,167.9,2026-07-02T22:09:00,EG Ampol Cornubia,3421073,-27.672522,153.212491,4130,ChIJ1WhooflpkWsRMfEtxPmUxRE,South,2026-07-03 22:01:57,QLD,,
61402392,161.9,2026-07-02T22:07:00,EG Ampol Woodridge,3421073,-27.645186,153.118928,4114,ChIJ6fPma_BDkWsRY8i970Jjv88,South,2026-07-03 22:01:57,QLD,,
61402398,177.9,2026-07-02T22:29:00,EG Ampol Mount Ommaney,3421073,-27.549542,152.941043,4074,ChIJ4anxvRZOkWsREaUMM-BLhWg,South,2026-07-03 22:01:57,QLD,,
61402404,161.9,2026-07-02T19:23:00,7-Eleven Clontarf,113,-27.260601,153.080001,4019,ChIJOUpOgEvkk2sRcsQ1LYbCgOY,North,2026-07-03 22:01:57,QLD,,
61402405,159.9,2026-07-02T04:15:10.56,United Forestdale,23,-27.653823,152.995711,4118,ChIJ16pzmJVIkWsRoNLYZezBXgY,South,2026-07-03 22:01:57,QLD,,
61402406,161.9,2026-07-03T01:37:00,7-Eleven Flinders View,113,-27.653447,152.762956,4305,ChIJnU1GR5G1lmsRk98z_15ElUM,South,2026-07-03 22:01:57,QLD,,
61402436,161.9,2026-07-02T20:00:35.327,Shell Reddy Express Nudgee,3421193,-27.377999608392884,153.093891,4014,ChIJmYO9ABHik2sRne2T9vnmwZ4,North,2026-07-03 22:01:57,QLD,,
61402464,199.9,2026-06-30T00:38:06.87,Point Lookout Roadhouse,12,-27.423023,153.516475,4183,ChIJmVti8EXUk2sRTq_hclW3TLA,North,2026-07-03 22:01:57,QLD,,
61402503,159.9,2026-07-01T21:41:16,BP Wamuran,5,-27.038915,152.858752,4512,ChIJq500e6f1k2sRITbyARnDu-4,North,2026-07-03 22:01:57,QLD,,
61402678,171.9,2026-07-02T22:14:50.217,Caltex Dayboro,2,-27.195955,152.825947,4521,ChIJiSrVkYcHlGsR2vdpOWk2SSA,North,2026-07-03 22:01:57,QLD,,
61402739,155.5,2026-07-03T00:01:03.87,Liberty Eight Mile Plains,86,-27.573428,153.078291,4113,ChIJ7cCT_9BFkWsRsXtbgQp8MQU,South,2026-07-03 22:01:57,QLD,,
61402762,163.9,2026-07-02T22:06:00,EG Ampol Karalee,3421073,-27.571241,152.799327,4306,ChIJ31rAoMRqbAERKr0oldZdUwc,South,2026-07-03 22:01:57,QLD,,
61402765,165.9,2026-07-03T00:34:51.707,Pacific Fuel Solutions Caboolture,3421162,-27.0876906682575,152.9803013852501,4510,ChIJFTMVMTjyk2sRs2PDfDyO_Vo,North,2026-07-03 22:01:57,QLD,,
61402813,161.9,2026-07-03T11:55:19.44,BP Connect North Lakes,5,-27.241863,153.023055,4509,ChIJHxMTJCnlk2sRQAkuxzkkNWw,North,2026-07-03 22:01:57,QLD,,
61402816,161.9,2026-07-02T22:16:00,EG Ampol Springfield,3421073,-27.678856,152.904123,4300,ChIJfZOj5uxLkWsRA32nPBY1mIk,South,2026-07-03 22:01:57,QLD,,
61402830,161.9,2026-07-02T22:06:00,EG Ampol Calamvale,3421073,-27.611892,153.054057,4116,ChIJRcROxrFFkWsRd2W5ULcwSbc,South,2026-07-03 22:01:57,QLD,,
61402834,165.9,2026-07-02T22:18:00,EG Ampol Enoggera,3421073,-27.42935179933878,152.98930968220904,4051,ChIJpyC0mhRXkWsRT0ygdZqjABA,North,2026-07-03 22:01:57,QLD,,
61402844,161.9,2026-07-02T20:00:35.327,Shell Reddy Express Mango Hill,3421193,-27.242734,153.023984,4509,ChIJN1CL4ijlk2sRjdaclMoRaCs,North,2026-07-03 22:01:57,QLD,,
61402845,161.9,2026-07-02T22:23:00,EG Ampol Underwood,3421073,-27.606312,153.109055,4119,ChIJ3TbZdX5DkWsRlxOA1Dsfdgc,South,2026-07-03 22:01:57,QLD,,
61402847,161.9,2026-07-02T20:22:18.397,Ampol Foodary Augustine Heights,3421066,-27.665500070157712,152.8910621898303,4300,ChIJ6cxa2UVKkWsRFK5TpNY92_4,South,2026-07-03 22:01:57,QLD,,
61402852,161.9,2026-07-03T01:37:00,7-Eleven Warner,113,-27.310281,152.962642,4500,ChIJ2TUiW1f8k2sRKibfnBYry80,North,2026-07-03 22:01:57,QLD,,
61402875,157.9,2026-07-02T19:23:00,7-Eleven Ningi,113,-27.062301,153.079179,4511,ChIJq6tH-MHsk2sRPK9igq_rXqY,North,2026-07-03 22:01:57,QLD,,
61402876,163.9,2026-07-02T22:09:00,EG Ampol Bowen Hills,3421073,-27.43935684389341,153.04003769940567,4006,ChIJm9DczrhZkWsRwaQndbZtiiI,North,2026-07-03 22:01:57,QLD,,
61402878,159.9,2026-07-02T03:55:32.067,BP Amberley,5,-27.658941,152.708684,4306,ChIJc-CKCeDJlmsR2QFiLPIPEoA,South,2026-07-03 22:01:57,QLD,,
61402880,161.9,2026-07-02T19:23:00,7-Eleven Raceview,113,-27.634495,152.774455,4305,ChIJmXGlOam1lmsRX75NDkzjqh8,South,2026-07-03 22:01:57,QLD,,
61402894,165.9,2026-07-03T05:49:00,Caltex Loganlea,2,-27.668834,153.125376,4131,ChIJ32QLtURBkWsRVsPjCCqPVfw,South,2026-07-03 22:01:57,QLD,,
61402897,163.9,2026-07-02T22:11:00,EG Ampol Kallangur,3421073,-27.250943,152.992977,4503,ChIJTxWqMz37k2sRLrjgp4W1SxU,North,2026-07-03 22:01:57,QLD,,
61402908,161.9,2026-07-02T20:17:19.14,Ampol Foodary North Lakes,3421066,-27.239449,153.009388,4509,ChIJYczKjtP6k2sRkXFSJd_sMYY,North,2026-07-03 22:01:57,QLD,,
61402913,167.9,2026-07-02T00:25:06.793,Pacific Fuel Solutions Blacksoil,3421162,-27.57635365510319,152.706416072422,4306,ChIJ950gg8m2lmsR0AWeinIyOhs,South,2026-07-03 22:01:57,QLD,,
61402918,157.5,2026-07-02T19:14:52.513,Freedom Fuels Loganholme,110,-27.689581,153.190423,4129,ChIJ7UgylOhBkWsRS5zwrEivnH8,South,2026-07-03 22:01:57,QLD,,
61477061,167.9,2026-07-02T22:14:00,EG Ampol Victoria Point,3421073,-27.587057,153.282657,4165,ChIJW3sofRFmkWsRtHTubpnA5Fc,South,2026-07-03 22:01:57,QLD,,
61477070,161.9,2026-07-02T22:40:11.057,United Springfield,23,-27.654489,152.917741,4300,ChIJ3bJfJR1LkWsRzcaaLLaOWd8,South,2026-07-03 22:01:57,QLD,,
61477071,161.9,2026-07-03T11:55:19.44,BP Slacks Creek,5,-27.655874,153.162979,4127,ChIJ73jYGy5CkWsRH2-5a6QKz0E,South,2026-07-03 22:01:57,QLD,,
61477074,161.9,2026-07-02T20:05:26.643,Shell Reddy Express Brisbane Airport,3421193,-27.395647908199038,153.10774790674594,4007,ChIJrZsdHqtYkWsRPXxFkIIQ57o,North,2026-07-03 22:01:57,QLD,,
61477081,165.9,2026-07-02T22:07:00,EG Ampol Joyner,3421073,-27.290927,152.953124,4500,ChIJvQkofp38k2sRJfeEJ8yGjOs,North,2026-07-03 22:01:57,QLD,,
61477083,159.9,2026-07-02T20:55:05.983,United Crestmead,23,-27.697253410613996,153.08220271135957,4132,ChIJL5IT1x5HkWsRvGLL-6Go3Cc,South,2026-07-03 22:01:57,QLD,,
61477091,163.9,2026-07-02T19:23:00,7-Eleven North Lakes,113,-27.220937,152.999794,4509,ChIJm3w7d8f6k2sRUmYP9LVuAb4,North,2026-07-03 22:01:57,QLD,,
61477097,199.9,2026-06-24T23:24:37.723,Amity Point General Dealers,5094,-27.398476,153.438513,4183,ChIJ0wzj6R_Xk2sRDjtwYX_zFkU,North,2026-07-03 22:01:57,QLD,,
61477099,165.9,2026-06-30T19:35:00.683,Astron Beachmere,114,-27.128704843124698,153.0516013868227,4510,ChIJ9ws9QHruk2sRCN53XdA4BI4,North,2026-07-03 22:01:57,QLD,,
61477100,169.9,2026-07-03T05:54:40.797,BP Foodworks Tivoli,5,-27.588832509233157,152.77196181410352,4305,ChIJBS84Z3m0lmsR2p6wmh7aTF0,South,2026-07-03 22:01:57,QLD,,
61477129,161.9,2026-07-02T22:18:00,EG Ampol Meadowbrook,3421073,-27.667831,153.138292,4131,GhIJGi_dJAarO8ARd76fGm8kY0A,South,2026-07-03 22:01:57,QLD,,
61477138,161.9,2026-07-03T01:37:00,7-Eleven Kingston South,113,-27.660149,153.117008,4114,ChIJu42u5lZBkWsRxZj9EUchAms,South,2026-07-03 22:01:57,QLD,,
61477140,161.9,2026-07-03T01:37:00,7-Eleven Deception Bay,113,-27.196842,153.015639,4508,ChIJbUxF4gHwk2sRNgvKwez-Nbc,North,2026-07-03 22:01:57,QLD,,
61477143,161.9,2026-07-03T01:37:00,7-Eleven Taigum,113,-27.342366,153.041502,4018,ChIJG5xCKuHik2sRv8X3cEFBZpo,North,2026-07-03 22:01:57,QLD,,
61477145,161.9,2026-07-02T20:15:36.157,Shell Reddy Express Springfield Orion,3421193,-27.676267,152.900674,4300,ChIJI3tzRBZKkWsR9s-bJIT2s9Q,South,2026-07-03 22:01:57,QLD,,
61477631,203.9,2026-07-02T07:23:23.467,Independent Borgy's Place,12,-27.499171,153.401798,4183,ChIJYd4rwtd8kWsRRMzbXMhqB4I,South,2026-07-03 22:01:57,QLD,,
61477645,161.9,2026-07-03T11:55:19.44,BP Logan Motorway East,5,-27.640169,153.010137,4110,ChIJ2Z2C7qtIkWsRO7ZKdfI8mtA,South,2026-07-03 22:01:57,QLD,,
61477652,171.9,2026-07-02T22:30:46.407,Caltex Bundamba,2,-27.588524,152.821812,4304,ChIJBYp4vkSzlmsR0F8_GHMajVY,South,2026-07-03 22:01:57,QLD,,
61477665,163.9,2026-07-02T19:23:00,7-Eleven Heathwood,113,-27.630712,152.986492,4110,ChIJZyR1actIkWsRw_n2k2KG9NY,South,2026-07-03 22:01:57,QLD,,
61477669,159.9,2026-07-03T01:35:00,7-Eleven Virginia,113,-27.371366,153.062734,4014,ChIJBR95fWLik2sRuAAXs6RkTWs,North,2026-07-03 22:01:57,QLD,,
61477670,161.9,2026-07-02T20:22:18.397,Ampol Foodary Yamanto,3421066,-27.656816,152.746774,4305,ChIJ3_3XUfC1lmsRy4ZVjSPUzZU,South,2026-07-03 22:01:57,QLD,,
61477671,163.9,2026-07-03T07:05:26.943,Caltex Archerfield,2,-27.564733,153.023797,4108,ChIJ33BUCltFkWsR0v-tvwksWHU,South,2026-07-03 22:01:57,QLD,,
61477675,161.9,2026-07-03T01:37:00,7-Eleven Loganlea,113,-27.687281,153.137458,4131,ChIJs0e_GxRBkWsRCCE9bypq2AE,South,2026-07-03 22:01:57,QLD,,
61477685,163.9,2026-07-02T19:23:00,7-Eleven Dakabin,113,-27.232713,152.992111,4503,ChIJZ4Qli936k2sRXP8c0Nrf7zc,North,2026-07-03 22:01:57,QLD,,
61477687,166.9,2026-07-02T21:52:51,Caltex Caboolture East,2,-27.085727,152.986338,4510,ChIJaRAypUDyk2sRy1RoiW3mnoI,North,2026-07-03 22:01:57,QLD,,
61477691,153.5,2026-07-03T06:55:35.167,Liberty Annerley,86,-27.503935408699782,153.0348827811191,4103,ChIJDR5ALmFakWsRx_9DFeBzKto,South,2026-07-03 22:01:57,QLD,,
61477694,161.9,2026-07-02T04:11:25.007,Caltex West Ipswich,2,-27.618121,152.750201,4305,ChIJk1U7BjS0lmsRzj6bzjr38w0,South,2026-07-03 22:01:57,QLD,,
61477695,161.9,2026-07-02T22:01:43.777,Caltex Rocklea,2,-27.537417,153.003541,4106,ChIJd1EUfRBQkWsR9cCNueQ4nwU,South,2026-07-03 22:01:57,QLD,,
61477696,159.9,2026-07-02T19:23:00,7-Eleven Cleveland,113,-27.524539,153.256024,4163,ChIJOfgIh9lmkWsRRHSnn4LvIzg,South,2026-07-03 22:01:57,QLD,,
61477701,161.9,2026-07-02T20:15:36.157,Shell Reddy Express Ipswich North,3421193,-27.603381,152.761975,4305,ChIJ58nb62m0lmsR1jaodoWe8KQ,South,2026-07-03 22:01:57,QLD,,
61477707,161.9,2026-07-02T21:59:04,Caltex Caboolture West,2,-27.076328,152.928023,4510,ChIJI0PVEvPzk2sRYoZLdIGilAY,North,2026-07-03 22:01:57,QLD,,
61477709,161.9,2026-07-02T22:35:05.347,United Brendale,23,-27.326447,152.974796,4500,ChIJI90TtgP9k2sRGmeO9BAaeWo,North,2026-07-03 22:01:57,QLD,,
61477716,161.9,2026-07-02T21:15:27.413,Shell Reddy Express Bremer,3421193,-27.620482,152.779606,4304,ChIJ809KE9-1lmsRscv6rvDm7zU,South,2026-07-03 22:01:57,QLD,,
61477718,161.9,2026-07-03T06:12:00,7-Eleven Tingalpa,113,-27.471719,153.110322,4173,ChIJF-ILaq1ekWsRESQ9yAl5a60,South,2026-07-03 22:01:57,QLD,,
61477720,159.9,2026-07-02T19:23:00,7-Eleven Salisbury,113,-27.544513,153.039614,4107,ChIJlbBZP8hakWsRcd1FwsbFGWM,South,2026-07-03 22:01:57,QLD,,
61477722,167.9,2026-07-02T22:12:00,EG Ampol Park Ridge,3421073,-27.697954,153.039827,4125,ChIJM0cY7bhHkWsRsiv1_ZDdgZs,South,2026-07-03 22:01:57,QLD,,
61477723,156.5,2026-07-03T02:55:08.993,United Coopers Plains,23,-27.569702,153.024658,4108,ChIJfSasGV1FkWsRhuQiaq1ZFsE,South,2026-07-03 22:01:57,QLD,,
61477731,161.9,2026-07-03T01:43:00,7-Eleven Willawong,113,-27.593842,153.003908,4110,ChIJtwY073lPkWsRjylJ2P4rFLQ,South,2026-07-03 22:01:57,QLD,,
61477733,161.9,2026-07-03T01:37:00,7-Eleven Caboolture North,113,-27.060554,152.957646,4510,ChIJ6wqKaajzk2sRvOMirlDcSaU,North,2026-07-03 22:01:57,QLD,,
61477737,179.9,2026-07-02T19:23:00,7-Eleven Burpengary,113,-27.153675,152.970824,4505,ChIJx-1NhFbwk2sRLC0tSEdnpeg,North,2026-07-03 22:01:57,QLD,,
61477738,161.9,2026-07-02T20:05:26.643,Shell Reddy Express Kedron,3421193,-27.402657,153.031179,4031,ChIJq6puNTxYkWsREnzPLznrbu0,North,2026-07-03 22:01:57,QLD,,
61477739,161.9,2026-07-02T20:05:26.643,Shell Reddy Express Booval,3421193,-27.613345,152.784396,4304,ChIJKU97mG61lmsRJ_Syo03KVzI,South,2026-07-03 22:01:57,QLD,,
61477740,161.9,2026-07-03T06:40:00,7-Eleven Griffin,113,-27.260491,153.024233,4503,ChIJ24d5Gc_kk2sR4PtgmvC96DU,North,2026-07-03 22:01:57,QLD,,
61477741,165.9,2026-07-03T01:40:00,7-Eleven North Lakes Central,113,-27.238573,153.008647,4509,ChIJ_U2boNb6k2sR18qXosB5lzw,North,2026-07-03 22:01:57,QLD,,
61477742,171.9,2026-07-02T20:37:18.557,Ampol Foodary Ripley,3421066,-27.657134,152.778673,4306,ChIJF1lLUkO1lmsR0aWXDx1tIcE,South,2026-07-03 22:01:57,QLD,,
61477749,161.9,2026-07-03T01:37:00,7-Eleven Caboolture,113,-27.077539,152.950377,4510,ChIJDwV-tbjzk2sRSo5U1kAJyvo,North,2026-07-03 22:01:57,QLD,,
61477751,161.9,2026-07-03T01:38:00,7-Eleven Tingalpa North,113,-27.467655,153.152472,4173,ChIJeXK5xvRekWsRVLcRivFevto,North,2026-07-03 22:01:57,QLD,,
61477752,161.9,2026-07-03T01:37:00,7-Eleven Logan Reserve,113,-27.696584,153.102784,4133,ChIJDWUaAtZGkWsRpMhh8kut7IQ,South,2026-07-03 22:01:57,QLD,,
61477753,149.9,2026-07-02T05:06:17.617,Liberty Acacia Ridge,86,-27.57773460925084,153.02584625750842,4110,ChIJQ1XhBmZFkWsR9wYC0oFZjlc,South,2026-07-03 22:01:57,QLD,,
61477754,163.9,2026-07-03T01:42:00,7-Eleven Redland Bay,113,-27.608486,153.289542,4165,ChIJ04PQCKlokWsR5US70BYVXA8,South,2026-07-03 22:01:57,QLD,,
61477755,161.9,2026-07-03T11:55:19.44,BP Coopers Plains,5,-27.567265,153.024317,4108,ChIJFSdem1xFkWsRJIqsCsH_KAA,South,2026-07-03 22:01:57,QLD,,
61477760,161.9,2026-07-03T01:37:00,7-Eleven Everton Hills,113,-27.391023,152.972139,4053,ChIJwzX3OLRXkWsRrnFC8XoVXCs,North,2026-07-03 22:01:57,QLD,,
61477762,161.9,2026-07-03T06:13:00,7-Eleven Gaythorne,113,-27.417095,152.982146,4051,ChIJX-mYKw9XkWsRVGZAP2sS2cg,North,2026-07-03 22:01:57,QLD,,
61477763,161.9,2026-07-02T20:05:26.643,Shell Reddy Express Alderley,3421193,-27.426788,153.001672,4051,ChIJofmRWDhXkWsRsQONyJHFDN4,North,2026-07-03 22:01:57,QLD,,
61477765,161.9,2026-07-02T20:17:19.14,Ampol Foodary Redbank Plains,3421066,-27.641024743458107,152.8483229398117,4301,ChIJLdtnNCBLkWsRAtm_6EoonFA,South,2026-07-03 22:01:57,QLD,,
61477767,161.9,2026-07-02T20:05:26.643,Shell Reddy Express Brendale,3421193,-27.328192,152.987104,4500,ChIJ4SnebC79k2sRPsoQr-1SZ4c,North,2026-07-03 22:01:57,QLD,,
61477775,161.9,2026-07-02T20:17:19.14,Ampol Foodary Narangba,3421066,-27.202741,153.010792,4504,ChIJxQFTHEL7k2sREo81Bt50jO8,North,2026-07-03 22:01:57,QLD,,
61477776,161.5,2026-07-03T07:39:51,Pearl Energy Woodridge,3421139,-27.61827792410671,153.1060272625656,4114,ChIJa0jvWyBFkWsRSNZqF6jD9uE,South,2026-07-03 22:01:57,QLD,,
61477778,161.5,2026-07-03T09:00:10.2,United Archerfield,23,-27.561096,153.010123,4108,ChIJYUoe4PZPkWsRkheo1Jiv2IE,South,2026-07-03 22:01:57,QLD,,
61477779,165.9,2026-07-03T01:40:00,7-Eleven West Ipswich,113,-27.621919,152.747585,4305,ChIJeZGxUiG1lmsR7L8U1XC-6Fc,South,2026-07-03 22:01:57,QLD,,
61477780,179.9,2026-07-02T19:23:00,7-Eleven Burpengary East,113,-27.139707,152.982665,4505,ChIJbdb8z3nxk2sRNKnKiMzep1A,North,2026-07-03 22:01:57,QLD,,
61477783,157.5,2026-07-02T20:44:25.533,Freedom Fuels Redland Bay Road,110,-27.529372,153.196826,4157,ChIJ49B3LPtdkWsR8ofQ9-nElhI,South,2026-07-03 22:01:57,QLD,,
61477786,161.9,2026-07-03T01:38:00,7-Eleven Kallangur,113,-27.251764,152.991435,4503,ChIJq_TeMoz7k2sRCoGMaJA4QpE,North,2026-07-03 22:01:57,QLD,,
61477787,161.9,2026-07-02T20:05:26.643,Shell Reddy Express Kedron Inbound,3421193,-27.397698,153.032006,4031,ChIJk2ivNCBZkWsR4s5A95EWL7M,North,2026-07-03 22:01:57,QLD,,
61477855,161.9,2026-07-03T06:40:00,7-Eleven Mango Hill,113,-27.243654,153.025408,4509,ChIJ8bdU1pnlk2sRcgIS21RHX7A,North,2026-07-03 22:01:57,QLD,,
61477856,159.5,2026-07-02T19:45:00.163,Freedom Fuels Geebung,110,-27.368481,153.048696,4034,ChIJvySnFlDjk2sRBrn7gpd_dKc,North,2026-07-03 22:01:57,QLD,,
61477877,161.9,2026-07-03T01:37:00,7-Eleven Springfield,113,-27.651963,152.921313,4300,ChIJA0ZTzqlJkWsRXAq9js5c4xE,South,2026-07-03 22:01:57,QLD,,
61477882,169.9,2026-07-01T21:00:31.23,Ampol Morayfield,3421066,-27.119833,152.955668,4506,ChIJ5SP_im3xk2sR7jpFeX48WRA,North,2026-07-03 22:01:57,QLD,,
61477883,161.9,2026-07-03T01:37:00,7-Eleven Rothwell,113,-27.211363,153.046688,4022,ChIJqVrLIgLlk2sRQRNYfR9EqxI,North,2026-07-03 22:01:57,QLD,,
61477885,159.9,2026-07-02T19:23:00,7-Eleven Strathpine Northbound,113,-27.308062,152.989949,4500,ChIJ0YHlEZT9k2sRTu2fo3MP35k,North,2026-07-03 22:01:57,QLD,,
61477886,159.5,2026-07-02T19:42:08.863,Freedom Fuels Kallangur,110,-27.254183,152.982414,4503,ChIJe5XRNO_7k2sRTl2JfpZ-H-4,North,2026-07-03 22:01:57,QLD,,
61477890,161.9,2026-07-03T01:37:00,7-Eleven Eight Mile Plains,113,-27.585578,153.103765,4113,ChIJo4kRRjNFkWsR1cBbA4ouALA,South,2026-07-03 22:01:57,QLD,,
61477897,161.9,2026-07-03T01:37:00,7-Eleven Hillcrest,113,-27.663668,153.034904,4118,ChIJf3ohF0pHkWsR9Ab-OWLMgX4,South,2026-07-03 22:01:57,QLD,,
61477928,161.9,2026-07-03T01:37:00,7-Eleven Caboolture East,113,-27.086517,152.965723,4510,ChIJv5aWQDfzk2sRZo40HKLTcdA,North,2026-07-03 22:01:57,QLD,,
61477934,159.9,2026-07-03T01:35:00,7-Eleven Keperra,113,-27.42016890675928,152.94846237168883,4054,ChIJDbPY4axXkWsRvzvUbSQAGUQ,North,2026-07-03 22:01:57,QLD,,
61477936,171.9,2026-07-02T20:32:16.893,Ampol Foodary Riverview,3421066,-27.589553,152.829909,4303,ChIJUSrdnO1NkWsRRFyYmMAgCVQ,South,2026-07-03 22:01:57,QLD,,
61477937,153.9,2026-07-01T20:10:09.907,United Woolloongabba,23,-27.487922,153.036159,4102,ChIJ-9QTGcJbkWsRNsepftQ7y5Q,South,2026-07-03 22:01:57,QLD,,
61477940,157.9,2026-07-03T02:55:08.993,United Sunnybank Hills,23,-27.590552,153.065192,4109,ChIJB1omJ-NEkWsRR5DuOXPNhOQ,South,2026-07-03 22:01:57,QLD,,
61477943,165.9,2026-07-03T01:40:00,7-Eleven Doolandella,113,-27.612414,152.987602,4077,ChIJWfWXHQlPkWsRJBDi-DyH0uE,South,2026-07-03 22:01:57,QLD,,
61477946,163.9,2026-07-02T20:27:19.09,Ampol Foodary Hendra,3421066,-27.410275,153.072089,4011,ChIJq43ahHNZkWsRZhs-5LJ52sI,North,2026-07-03 22:01:57,QLD,,
61477949,159.7,2026-07-02T20:15:16.56,Metro Petroleum Greenbank,57,-27.696955,153.013438,4124,ChIJpZbPnnVIkWsRkASHvBQsEKI,South,2026-07-03 22:01:57,QLD,,
61477953,161.9,2026-07-03T01:37:00,7-Eleven Bellmere,113,-27.088853,152.927838,4510,ChIJ4R_Cxvvzk2sRINxKbR1eB1A,North,2026-07-03 22:01:57,QLD,,
61477956,157.5,2026-07-03T04:01:22.73,Shell Tingalpa,20,-27.472766,153.114344,4173,ChIJowUU3a1ekWsRhj4x3S9JU_k,South,2026-07-03 22:01:57,QLD,,
61477960,167.9,2026-07-03T06:45:00,7-Eleven Park Ridge,113,-27.698996,153.040984,4125,ChIJt4g3AatHkWsR603jZJbVfdQ,South,2026-07-03 22:01:57,QLD,,
61477962,163.9,2026-07-02T19:23:00,7-Eleven Redland Bay South,113,-27.637203,153.306042,4165,ChIJ72YxQSdvkWsRy3NRXnj8-gs,South,2026-07-03 22:01:57,QLD,,
61477963,161.9,2026-07-02T20:17:19.14,Ampol Foodary Tingalpa,3421066,-27.474108,153.121802,4173,ChIJmQ7jQqVekWsRMFu4rvx7Gcs,South,2026-07-03 22:01:57,QLD,,
61477971,169.9,2026-07-01T13:20:35.603,Ampol Wacol,3421066,-27.593553,152.922853,4076,ChIJGUFmaltPkWsRk7M_79t3xNA,South,2026-07-03 22:01:57,QLD,,
61477972,155.5,2026-07-02T19:57:47.79,Freedom Fuels Darra South,110,-27.572239,152.960523,4076,ChIJS6xw-sdPkWsRN4vQOStzO4g,South,2026-07-03 22:01:57,QLD,,
61477974,167.9,2026-07-03T06:45:00,7-Eleven Regents Park,113,-27.688181,153.037662,4118,ChIJZz8B19RHkWsRH-nwF1IVHB0,South,2026-07-03 22:01:57,QLD,,
61477979,161.9,2026-07-03T01:37:00,7-Eleven Eden's Crossing,113,-27.668754,152.842579,4301,ChIJg6QdQ7lKkWsRTcW2s9FDWhI,South,2026-07-03 22:01:57,QLD,,
61477986,162.9,2026-07-02T20:52:18.277,Ampol Foodary Morningside,3421066,-27.456745,153.087078,4170,ChIJj7cCujtZkWsRA2-w7TDDKUI,North,2026-07-03 22:01:57,QLD,,
61478004,153.5,2026-07-03T02:56:16.04,Liberty Margate,86,-27.242988,153.107046,4019,ChIJV92B7Inlk2sRE0PuRi6Ug7s,North,2026-07-03 22:01:57,QLD,,
61478011,152.9,2026-07-01T21:25:05.76,United Berrinba,23,-27.676026,153.079144,4117,ChIJS5x8H-xGkWsR8JIUrzs2-vA,South,2026-07-03 22:01:57,QLD,,
61478018,161.9,2026-07-03T01:37:00,7-Eleven Morayfield East,113,-27.109139,152.967497,4506,ChIJZTJ6L4Pxk2sRgZ6juCebkcs,North,2026-07-03 22:01:57,QLD,,
61478027,157.9,2026-07-03T02:50:09.91,United Morayfield,23,-27.104792,152.947002,4506,ChIJmw33Habxk2sRjEWEaG8USMo,North,2026-07-03 22:01:57,QLD,,
61478030,161.9,2026-07-03T06:16:00,7-Eleven Eight Mile Plains Northbound,113,-27.573523,153.090669,4113,ChIJ__-vN7dEkWsRfvwuaU_0Pzc,South,2026-07-03 22:01:57,QLD,,
61478041,161.9,2026-07-03T01:37:00,7-Eleven  Bracken Ridge North,113,-27.309904,153.025512,4017,ChIJ8z06ncnjk2sRNnC2Q48FnfA,North,2026-07-03 22:01:57,QLD,,
61478046,159.5,2026-07-03T08:17:13,Pearl Energy Rothwell,3421139,-27.21651197626366,153.04596229926682,4022, ChIJB_bhY5Xlk2sRv3bzqtztHGw,North,2026-07-03 22:01:57,QLD,,
61478047,161.5,2026-07-03T08:22:55,Pearl Energy Moorooka,3421139,-27.52739717949918,153.02112599140165,4105,ChIJobGVuphakWsRLhggYW1eDMc,South,2026-07-03 22:01:57,QLD,,
61478057,159.9,2026-07-03T00:08:00,7-Eleven Chandler,113,-27.516123,153.181907,4155,ChIJd4dwJAtdkWsRbDOgbFunLas,South,2026-07-03 22:01:57,QLD,,
61478059,165.9,2026-07-02T22:08:00,EG Ampol Brendale,3421073,-27.315004,152.966679,4500,ChIJ783dEFb8k2sRO-yty92BdVY,North,2026-07-03 22:01:57,QLD,,
61478087,159.9,2026-07-03T05:38:50.2,Caltex Crestmead,2,-27.69378632229072,153.07724963194656,4132,ChIJTy-grx1HkWsRL-MD1uMIkxA,South,2026-07-03 22:01:57,QLD,,
61478089,159.9,2026-07-03T11:14:00,7-Eleven Brisbane East,113,-27.488400458163543,153.04863777560195,4169,ChIJqbQPRzhakWsRYLKCRO9TXEE,South,2026-07-03 22:01:57,QLD,,
61478093,157.9,2026-07-02T19:23:00,7-Eleven Sandstone Point,113,-27.071435266078836,153.13532772452643,4511,ChIJ4bNyoT_rk2sRNXobDaghZgY,North,2026-07-03 22:01:57,QLD,,
61478106,161.9,2026-07-03T06:15:00,7-Eleven Cornubia,113,-27.670202149976504,153.20282614329264,4130,ChIJ0V6HnwBCkWsRFreG8zVU-x8,South,2026-07-03 22:01:57,QLD,,
61478112,161.9,2026-07-02T20:22:18.413,Ampol Windsor,3421066,-27.436792733114075,153.02339601223372,4030,ChIJFyJ7fNxZkWsR5o9SEVcAmRw,North,2026-07-03 22:01:57,QLD,,
61478114,161.9,2026-07-03T01:44:00,7-Eleven Mount Gravatt,113,-27.53565350399373,153.07665807073778,4122,ChIJUdF3IhdbkWsRSELXnywRfLY,South,2026-07-03 22:01:57,QLD,,
61478128,229.5,2026-06-26T01:09:03.067,5 Star MacLeay Island,12,-27.62048677751147,153.3621236122684,4184,ChIJ37yA-4lvkWsRWPbWoN1bb3g,South,2026-07-03 22:01:57,QLD,,
61478183,226.9,2026-06-21T21:42:12,Russell Island General Store,12,-27.652115,153.380712,4184,ChIJGfaeT9tvkWsRccU97_di_Io,South,2026-07-03 22:01:57,QLD,,
61478193,159.9,2026-07-03T01:35:00,7-Eleven Northgate,113,-27.391817254810274,153.07109543650816,4013,ChIJwzkZfoNYkWsRYWS3r9_KQko,North,2026-07-03 22:01:57,QLD,,
61478198,161.9,2026-07-03T07:05:05.66,United Mitchelton,23,-27.41471648666694,152.97730429677327,4053,ChIJZ5qNbEFXkWsRxBdC2US00yE,North,2026-07-03 22:01:57,QLD,,
61478201,157.9,2026-07-02T07:27:23.313,Metro Caboolture South,57,-27.093302371841695,152.94949876197776,4510,ChIJrVP-fJnzk2sRKS-pjgG-88c,North,2026-07-03 22:01:57,QLD,,
61478213,169.5,2026-06-30T18:52:06.007,Caltex Willawong,2,-27.594301151904506,153.00589252347183,4110,ChIJNYxccXlPkWsRXWP_J4_ilaU,South,2026-07-03 22:01:57,QLD,,
61478219,161.9,2026-07-02T22:09:00,EG Ampol Caboolture South,3421073,-27.096278400080855,152.9488247396431,4510,ChIJhfGpvt7zk2sRuIDbH7F8lYc,North,2026-07-03 22:01:57,QLD,,
61478220,165.9,2026-07-02T22:34:00,EG Ampol Ripley South,3421073,-27.69132089938983,152.8031637374344,4306,ChIJrZPFLZbKlmsRIZba3moL7A0,South,2026-07-03 22:01:57,QLD,,
61478222,170.9,2026-07-01T23:01:40.45,Caltex Coopers Plains,2,-27.572149765742434,153.03519868684006,4108,ChIJ2-N0HQBFkWsRha3JWMqKWMM,South,2026-07-03 22:01:57,QLD,,
61478226,177.9,2026-06-30T18:29:11.747,BP Paradise Gardens,5,-27.566598115425766,153.24974251182522,4164,ChIJDVZ3x_lnkWsRS_CYk4N9fmc,South,2026-07-03 22:01:57,QLD,,
61478227,152.9,2026-07-02T20:10:12.117,United Slacks Creek,23,-27.625835034179666,153.11769409325404,4127,ChIJ0fpaTndDkWsRktFvjrPaBo8,South,2026-07-03 22:01:57,QLD,,
61478231,161.9,2026-07-03T06:40:00,7-Eleven Kedron,113,-27.39863917071317,153.03197252883606,4031,ChIJ4VlEDBZYkWsRCfEL4fG754g,North,2026-07-03 22:01:57,QLD,,
61478233,161.9,2026-07-03T06:30:00,7-Eleven Chuwar,113,-27.57247896542318,152.79030419172994,4306,ChIJ2Q1V5XGzlmsR0BlMXz0ab_A,South,2026-07-03 22:01:57,QLD,,
61478236,163.2,2026-07-02T07:40:06.267,NightOwl Shell Karawatha,20,-27.651243269301546,153.0758083748688,4117, ChIJT7q0TghHkWsRW0bpiQtTTM8,South,2026-07-03 22:01:57,QLD,,
61478246,164.3,2026-07-03T07:20:08.583,NightOwl Shell Dakabin,20,-27.225416496521763,152.9907472804582,4503,ChIJZUKOF_37k2sR8FINTADMwIg,North,2026-07-03 22:01:57,QLD,,
61478248,161.9,2026-07-03T01:45:00,OTR Swanbank,169,-27.675319041570603,152.83636513523064,4306,ChIJGWYknkEvkWsRyCxQAfhgwXs,South,2026-07-03 22:01:57,QLD,,
61478249,177.5,2026-06-30T18:40:36.993,Caltex Richlands,2,-27.59946027258888,152.9493657962952,4077,ChIJIxwoUQBPkWsRXHjOwtanaJ8,South,2026-07-03 22:01:57,QLD,,
61478257,163.9,2026-07-02T19:23:00,7-Eleven Ripley North,113,-27.672811401191908,152.7845945423279,4306,EjJCaW5uaWVzIFJkICYgUmlwbGV5IFJkLCBSaXBsZXkgUUxEIDQzMDYsIEF1c3RyYWxpYSJmImQKFAoSCTcdpwx-tZZrEdgWjvxIbPq3EhQKEgk3HacMfrWWaxHYFo78SGz6txoUChIJgaA-mH_KlmsRqoR9MxHrjY8aFAoSCZFO45HBypZrEe0hHqI-YizGIgoNO5SB7xW9IBFb,South,2026-07-03 22:01:57,QLD,,
61478283,161.9,2026-07-02T20:22:18.413,Ampol Foodary Morayfield East,3421066,-27.10930972378493,152.97310703367856,4506,ChIJr9KTN4Hxk2sRnjXUln8hPlA,North,2026-07-03 22:01:57,QLD,,
61478288,161.9,2026-07-03T01:37:00,7-Eleven Collingwood Park,113,-27.62425080880812,152.85782253032556,4301,ChIJL6J4OQ1LkWsRXDp6jcREYvA,South,2026-07-03 22:01:57,QLD,,
wa_bc2cfac0,140.8,2026-07-03T00:00:00,Petro Fuels Seville Grove,0,-32.136834,115.980305,,,South,2026-07-03 22:01:57,WA,Petro Fuels,Seville Grove
wa_2ab69a11,140.8,2026-07-03T00:00:00,Petro Fuels Calista,0,-32.248776,115.808019,,,South,2026-07-03 22:01:57,WA,Liberty,Calista
wa_83b441c8,140.8,2026-07-03T00:00:00,Petro Fuels Swan View,0,-31.885693,116.042187,,,North,2026-07-03 22:01:57,WA,Petro Fuels,Swan View
wa_ce8fe810,141.5,2026-07-03T00:00:00,Petro Fuels Baldivis,0,-32.309663,115.796699,,,South,2026-07-03 22:01:57,WA,Petro Fuels,Baldivis
wa_287fea56,141.8,2026-07-03T00:00:00,Petro Fuels Bassendean,0,-31.915476,115.931768,,,North,2026-07-03 22:01:57,WA,Petro Fuels,Bassendean
wa_860f6358,141.8,2026-07-03T00:00:00,Petro Fuels Westminster,0,-31.867713,115.829807,,,North,2026-07-03 22:01:57,WA,Petro Fuels,Westminster
wa_fc8f99c4,144.8,2026-07-03T00:00:00,Petro Fuels Karragullen,0,-32.105085,116.121421,,,South,2026-07-03 22:01:57,WA,Petro Fuels,Karragullen
wa_ef084846,148.7,2026-07-03T00:00:00,Costco Perth Airport,0,-31.940377,115.951869,,,North,2026-07-03 22:01:57,WA,Costco,Perth Airport
wa_94bb6eea,148.7,2026-07-03T00:00:00,Costco Casuarina,0,-32.233481,115.853714,,,South,2026-07-03 22:01:57,WA,Costco,Casuarina
wa_6a0817d1,148.9,2026-07-03T00:00:00,Petro Fuels Shoalwater,0,-32.292358,115.71055,,,South,2026-07-03 22:01:57,WA,Caltex,Shoalwater
wa_354bb1a4,149.2,2026-07-03T00:00:00,Metro Bassendean,0,-31.905283,115.932367,,,North,2026-07-03 22:01:57,WA,Metro Petroleum,Bassendean
wa_dd19300b,149.8,2026-07-03T00:00:00,Petro Fuels Bluff Point,0,-28.74142,114.622456,,,North,2026-07-03 22:01:57,WA,Petro Fuels,Bluff Point
wa_29b6a9ed,149.9,2026-07-03T00:00:00,Dunning's Chittering,0,-31.464965,116.051302,,,North,2026-07-03 22:01:57,WA,Shell,Chittering
wa_c4621c89,153.7,2026-07-03T00:00:00,Vibe Kwinana Town Centre,0,-32.244599,115.815592,,,South,2026-07-03 22:01:57,WA,Vibe,Kwinana Town Centre
wa_0003c8d8,153.7,2026-07-03T00:00:00,Vibe Kwinana OPT,0,-32.245503,115.78259,,,South,2026-07-03 22:01:57,WA,Vibe,Kwinana Beach
wa_5e0d16ed,153.9,2026-07-03T00:00:00,Caltex Kwinana Truck Stop,0,-32.247525,115.773262,,,South,2026-07-03 22:01:57,WA,Caltex,Kwinana Beach
wa_79da3c2f,153.9,2026-07-03T00:00:00,Caltex Kelvin Rd,0,-32.034609,116.000915,,,South,2026-07-03 22:01:57,WA,Caltex,Maddington
wa_c474d79d,154.5,2026-07-03T00:00:00,Liberty Kalgoorlie,0,-30.752968,121.475421,,,North,2026-07-03 22:01:57,WA,Liberty,Kalgoorlie
wa_c2650458,154.8,2026-07-03T00:00:00,Petro Fuels Albany,0,-35.009895,117.870443,,,South,2026-07-03 22:01:57,WA,Petro Fuels,Centennial Park
wa_1fbdc5aa,154.9,2026-07-03T00:00:00,Vibe Oakford Truckstop,0,-32.209305,115.952279,,,South,2026-07-03 22:01:57,WA,Vibe,Oakford
wa_330af31b,155.0,2026-07-03T00:00:00,Gnowangerup Fuel Supplies,0,-33.941978,118.006236,,,South,2026-07-03 22:01:57,WA,Independent,Gnowangerup
wa_cc761384,155.3,2026-07-03T00:00:00,Burk Oakford,0,-32.205041,115.926114,,,South,2026-07-03 22:01:57,WA,Burk,Oakford
wa_7aaa38ba,155.5,2026-07-03T00:00:00,Liberty Banksia Grove,0,-31.703225,115.798512,,,North,2026-07-03 22:01:57,WA,Liberty,Banksia Grove
wa_4804babf,155.5,2026-07-03T00:00:00,Shell High Wycombe,0,-31.938206,115.992146,,,North,2026-07-03 22:01:57,WA,Shell,High Wycombe
wa_2081d054,155.5,2026-07-03T00:00:00,Liberty East Rockingham,0,-32.2766666,115.773403,,,South,2026-07-03 22:01:57,WA,Liberty,East Rockingham
wa_2bf00e41,155.5,2026-07-03T00:00:00,Liberty Gosnells,0,-32.075216,116.005816,,,South,2026-07-03 22:01:57,WA,Liberty,Gosnells
wa_3a8bad27,155.5,2026-07-03T00:00:00,Liberty Tapping,0,-31.720162,115.783898,,,North,2026-07-03 22:01:57,WA,Liberty,Wanneroo
wa_6dcecc46,155.5,2026-07-03T00:00:00,Liberty Naval Base,0,-32.197618,115.783018,,,South,2026-07-03 22:01:57,WA,Liberty,Naval Base
wa_18fa061c,155.5,2026-07-03T00:00:00,Liberty O'Connor,0,-32.063065,115.792017,,,South,2026-07-03 22:01:57,WA,Liberty,O'Connor
wa_a081c740,156.2,2026-07-03T00:00:00,Liberty Cannington,0,-32.01664,115.938196,,,South,2026-07-03 22:01:57,WA,Liberty,Cannington
wa_59a221fc,156.3,2026-07-03T00:00:00,Burk Cannington,0,-32.027183,115.950013,,,South,2026-07-03 22:01:57,WA,Burk,Beckenham
wa_c7ddc388,156.3,2026-07-03T00:00:00,Liberty Beckenham,0,-32.022054,115.954779,,,South,2026-07-03 22:01:57,WA,Liberty,Beckenham
wa_f4d5127e,156.3,2026-07-03T00:00:00,Liberty Landsdale,0,-31.802758,115.837737,,,North,2026-07-03 22:01:57,WA,Liberty,Landsdale
wa_40645d68,156.3,2026-07-03T00:00:00,Burk Landsdale,0,-31.79903,115.847126,,,North,2026-07-03 22:01:57,WA,Burk,Landsdale
wa_e68a5634,156.5,2026-07-03T00:00:00,Atlas Fuel Forrestdale,0,-32.147176,115.937714,,,South,2026-07-03 22:01:57,WA,Atlas,Forrestdale
wa_efdb1306,156.5,2026-07-03T00:00:00,Atlas Fuel Kwinana,0,-32.235848,115.780215,,,South,2026-07-03 22:01:57,WA,Atlas,Kwinana Beach
wa_7585546c,156.5,2026-07-03T00:00:00,Atlas Fuel Ascot,0,-31.925213,115.951987,,,North,2026-07-03 22:01:57,WA,Atlas,Ascot
wa_3e0fd0cd,156.5,2026-07-03T00:00:00,Atlas Fuel Golden Bay,0,-32.42028,115.760489,,,South,2026-07-03 22:01:57,WA,Atlas,Golden Bay
wa_6a5ecc7d,156.7,2026-07-03T00:00:00,Lori's Fuel Supply,0,-32.135359,116.009481,,,South,2026-07-03 22:01:57,WA,Independent,Kelmscott
wa_20a593d2,156.9,2026-07-03T00:00:00,Fuel & Fly Kalgoorlie,0,-30.74842255,121.46876662,,,North,2026-07-03 22:01:57,WA,Eagle,Kalgoorlie
wa_0ea79e29,156.9,2026-07-03T00:00:00,Eagle West Kalgoorlie Truckstop,0,-30.777107,121.431253,,,North,2026-07-03 22:01:57,WA,Eagle,West Kalgoorlie
wa_95bbbcac,157.3,2026-07-03T00:00:00,Burk Mount Lawley,0,-31.925887,115.880225,,,North,2026-07-03 22:01:57,WA,Burk,Mount Lawley
wa_58db5a80,157.5,2026-07-03T00:00:00,Atlas Fuel Forrestfield,0,-31.988049,116.008437,,,South,2026-07-03 22:01:57,WA,Atlas,Forrestfield
wa_3024b149,157.7,2026-07-03T00:00:00,Vibe Mt Helena,0,-31.878494,116.209053,,,North,2026-07-03 22:01:57,WA,Vibe,Mount Helena
wa_5155244b,157.7,2026-07-03T00:00:00,Vibe Henderson,0,-32.146141,115.779092,,,South,2026-07-03 22:01:57,WA,Vibe,Henderson
wa_53fa09e0,157.9,2026-07-03T00:00:00,FastFuel 24/7,0,-31.995465,116.01183,,,South,2026-07-03 22:01:57,WA,FastFuel 24/7,Forrestfield
wa_25fd8499,157.9,2026-07-03T00:00:00,7-Eleven Landsdale,0,-31.804934,115.835741,,,North,2026-07-03 22:01:57,WA,7-Eleven,Landsdale
wa_15868125,157.9,2026-07-03T00:00:00,7-Eleven Harrisdale,0,-32.125599,115.92601,,,South,2026-07-03 22:01:57,WA,7-Eleven,Harrisdale
wa_c9b96ed1,157.9,2026-07-03T00:00:00,7-Eleven Cockburn Central,0,-32.120001,115.846548,,,South,2026-07-03 22:01:57,WA,7-Eleven,Cockburn Central
wa_d42ddba5,157.9,2026-07-03T00:00:00,7-Eleven Thornlie,0,-32.06954,115.952095,,,South,2026-07-03 22:01:57,WA,7-Eleven,Thornlie
wa_a9601ea9,157.9,2026-07-03T00:00:00,7-Eleven Booragoon,0,-32.039537,115.822893,,,South,2026-07-03 22:01:57,WA,7-Eleven,Booragoon
wa_9b717914,157.9,2026-07-03T00:00:00,7-Eleven Stirling,0,-31.8734,115.828839,,,North,2026-07-03 22:01:57,WA,7-Eleven,Balcatta
wa_545d2629,157.9,2026-07-03T00:00:00,7-Eleven Baldivis,0,-32.308362,115.822017,,,South,2026-07-03 22:01:57,WA,7-Eleven,Baldivis
wa_666e733a,157.9,2026-07-03T00:00:00,UGO Mundaring,0,-31.900609,116.151983,,,North,2026-07-03 22:01:57,WA,UGO,Mundaring
wa_61b410ae,158.0,2026-07-03T00:00:00,Chidlow Growers Mart Liquor Store,0,-31.857699,116.265987,,,North,2026-07-03 22:01:57,WA,Independent,Chidlow
wa_1f32f512,158.5,2026-07-03T00:00:00,Atlas Fuel Wanneroo,0,-31.752615,115.803432,,,North,2026-07-03 22:01:57,WA,Atlas,Wanneroo
wa_f636da43,158.9,2026-07-03T00:00:00,Vibe Beechboro,0,-31.869,115.924439,,,North,2026-07-03 22:01:57,WA,Vibe,Beechboro
wa_3916d51d,159.2,2026-07-03T00:00:00,Vibe Hamilton Hill,0,-32.086143,115.777233,,,South,2026-07-03 22:01:57,WA,Vibe,Hamilton Hill
wa_05fde7fa,159.2,2026-07-03T00:00:00,Metro Geraldton,0,-28.792328,114.616974,,,North,2026-07-03 22:01:57,WA,Metro Petroleum,Mahomets Flats
wa_038229b4,159.2,2026-07-03T00:00:00,Metro Wanneroo,0,-31.748986,115.801954,,,North,2026-07-03 22:01:57,WA,Metro Petroleum,Wanneroo
wa_dadd03e4,159.2,2026-07-03T00:00:00,Metro Wangara,0,-31.801903,115.827519,,,North,2026-07-03 22:01:57,WA,Metro Petroleum,Wangara
wa_0276a404,159.2,2026-07-03T00:00:00,Metro Albany,0,-35.021822,117.883089,,,South,2026-07-03 22:01:57,WA,Metro Petroleum,Albany
wa_8b45cd1b,159.3,2026-07-03T00:00:00,Atlas Fuel Midvale,0,-31.885583,116.030335,,,North,2026-07-03 22:01:57,WA,Atlas,Midvale
wa_3e3b430a,159.3,2026-07-03T00:00:00,Atlas Fuel Stratton,0,-31.869738,116.034377,,,North,2026-07-03 22:01:57,WA,Atlas,Stratton
wa_899da25e,159.3,2026-07-03T00:00:00,Vibe Nollamara,0,-31.880514,115.840339,,,North,2026-07-03 22:01:57,WA,Vibe,Nollamara
wa_50349405,159.3,2026-07-03T00:00:00,Vibe Ascot,0,-31.935968,115.934361,,,North,2026-07-03 22:01:57,WA,Vibe,Ascot
wa_afe72477,159.3,2026-07-03T00:00:00,Vibe Morley,0,-31.887832,115.889889,,,North,2026-07-03 22:01:57,WA,Vibe,Morley
wa_b13afe56,159.3,2026-07-03T00:00:00,Vibe Piara Waters,0,-32.146852,115.922099,,,South,2026-07-03 22:01:57,WA,Vibe,Piara Waters
wa_5ad85795,159.3,2026-07-03T00:00:00,Burk Alkimos,0,-31.628239,115.69118,,,North,2026-07-03 22:01:57,WA,Burk,Alkimos
wa_dcc5aaf5,159.3,2026-07-03T00:00:00,Burk Camillo,0,-32.118652,116.002556,,,South,2026-07-03 22:01:57,WA,Burk,Camillo
wa_7fcab96a,159.3,2026-07-03T00:00:00,Burk Bassendean,0,-31.901105,115.959118,,,North,2026-07-03 22:01:57,WA,Burk,Bassendean
wa_77c4043a,159.3,2026-07-03T00:00:00,Burk Malaga,0,-31.855778,115.891559,,,North,2026-07-03 22:01:57,WA,Burk,Malaga
wa_d51fdcda,159.3,2026-07-03T00:00:00,Atlas Fresh Trading Co Northam,0,-31.635198,116.71624,,,North,2026-07-03 22:01:57,WA,Atlas,Malabaine
wa_620f31a5,159.5,2026-07-03T00:00:00,Solo Hamilton Hill,0,-32.085241,115.7771,,,South,2026-07-03 22:01:57,WA,Solo,Hamilton Hill
wa_a3d4d602,159.5,2026-07-03T00:00:00,Better Choice Malaga,0,-31.855136,115.878229,,,North,2026-07-03 22:01:57,WA,Better Choice,Malaga
wa_93d3871b,159.5,2026-07-03T00:00:00,Dunning's Picton,0,-33.351434,115.69075,,,South,2026-07-03 22:01:57,WA,Shell,Picton
wa_c83aa05a,159.5,2026-07-03T00:00:00,Liberty Oyster Harbour,0,-34.981779,117.922103,,,South,2026-07-03 22:01:57,WA,Liberty,Bayonet Head
wa_cc4bebee,159.5,2026-07-03T00:00:00,Liberty McKail,0,-34.985495,117.851724,,,South,2026-07-03 22:01:57,WA,Liberty,Mckail
wa_47596782,159.5,2026-07-03T00:00:00,Liberty Pinjarra,0,-32.626282,115.869595,,,South,2026-07-03 22:01:57,WA,Liberty,Pinjarra
wa_5f18e2ef,159.5,2026-07-03T00:00:00,Liberty Dalyellup,0,-33.396215,115.636958,,,South,2026-07-03 22:01:57,WA,Liberty,Dalyellup
wa_dbd6a037,159.5,2026-07-03T00:00:00,Liberty Dongara,0,-29.253038,114.956368,,,North,2026-07-03 22:01:57,WA,Liberty,Dongara
wa_cdd19109,159.5,2026-07-03T00:00:00,Liberty Cataby,0,-30.735706,115.539091,,,North,2026-07-03 22:01:57,WA,Liberty,Cataby
wa_219b6bf6,159.5,2026-07-03T00:00:00,Liberty Busselton West,0,-33.656076,115.341215,,,South,2026-07-03 22:01:57,WA,Liberty,West Busselton
wa_90b9d450,159.5,2026-07-03T00:00:00,Solo Morley,0,-31.875866,115.925309,,,North,2026-07-03 22:01:57,WA,Solo,Morley
wa_eb0126c0,159.5,2026-07-03T00:00:00,Solo Riverton,0,-32.038363,115.896754,,,South,2026-07-03 22:01:57,WA,Solo,Riverton
wa_73c7ca2f,159.7,2026-07-03T00:00:00,Vibe Baldivis,0,-32.29762,115.80712,,,South,2026-07-03 22:01:57,WA,Vibe,Baldivis
wa_6cdb03aa,159.7,2026-07-03T00:00:00,Vibe Byford,0,-32.221206,116.009206,,,South,2026-07-03 22:01:57,WA,Vibe,Byford
wa_a6d05c95,159.7,2026-07-03T00:00:00,Vibe Toodyay Rd,0,-31.794245,116.193148,,,North,2026-07-03 22:01:57,WA,Vibe,Gidgegannup
wa_20ddc193,159.7,2026-07-03T00:00:00,Vibe Welshpool,0,-31.994327,115.930681,,,South,2026-07-03 22:01:57,WA,Vibe,Welshpool
wa_2262e86a,159.7,2026-07-03T00:00:00,Vibe Upper Swan,0,-31.765846,116.031763,,,North,2026-07-03 22:01:57,WA,Vibe,Upper Swan
wa_d3c232aa,159.7,2026-07-03T00:00:00,Vibe Port Kennedy,0,-32.371578,115.762171,,,South,2026-07-03 22:01:57,WA,Vibe,Port Kennedy
wa_65f8d901,159.7,2026-07-03T00:00:00,Vibe Forrestfield,0,-31.961356,115.992227,,,South,2026-07-03 22:01:57,WA,Vibe,Forrestfield
wa_7b39a964,159.7,2026-07-03T00:00:00,Vibe Neerabup,0,-31.686965,115.783501,,,North,2026-07-03 22:01:57,WA,Vibe,Neerabup
wa_ef7c47ae,159.8,2026-07-03T00:00:00,Atlas Fuel Caversham,0,-31.8719994,115.9599162,,,North,2026-07-03 22:01:57,WA,Atlas,Caversham
wa_8a999116,159.9,2026-07-03T00:00:00,OMG Metro Yangebup,0,-32.116891,115.795446,,,South,2026-07-03 22:01:57,WA,OMG Metro,Yangebup
wa_8dd9cca7,159.9,2026-07-03T00:00:00,OMG Metro Maddington,0,-32.053507,116.000806,,,South,2026-07-03 22:01:57,WA,OMG Metro,Maddington
wa_771cc158,159.9,2026-07-03T00:00:00,OMG Metro Dianella,0,-31.906435,115.881917,,,North,2026-07-03 22:01:57,WA,OMG Metro,Dianella
wa_5c99286a,159.9,2026-07-03T00:00:00,OTR Yangebup,0,-32.1188832,115.79473,,,South,2026-07-03 22:01:57,WA,Caltex,Yangebup
wa_1b967c4c,159.9,2026-07-03T00:00:00,7-Eleven Balga,0,-31.856494,115.83739,,,North,2026-07-03 22:01:57,WA,7-Eleven,Balga
wa_2d48af68,159.9,2026-07-03T00:00:00,7-Eleven Haynes,0,-32.147485,115.984399,,,South,2026-07-03 22:01:57,WA,7-Eleven,Armadale
wa_35ed901d,159.9,2026-07-03T00:00:00,7-Eleven Bibra Lake,0,-32.101411,115.801664,,,South,2026-07-03 22:01:57,WA,7-Eleven,Bibra Lake
wa_3e58c557,159.9,2026-07-03T00:00:00,7-Eleven Kelmscott Central,0,-32.118987,116.017576,,,South,2026-07-03 22:01:57,WA,7-Eleven,Kelmscott
wa_d2b55386,159.9,2026-07-03T00:00:00,7-Eleven Kelmscott,0,-32.128644,115.999775,,,South,2026-07-03 22:01:57,WA,7-Eleven,Kelmscott
wa_cba391f8,159.9,2026-07-03T00:00:00,7-Eleven Bentley,0,-32.001754,115.918523,,,South,2026-07-03 22:01:57,WA,7-Eleven,Bentley
wa_7048936b,159.9,2026-07-03T00:00:00,Condello's Liquor Waterloo,0,-33.339593,115.723288,,,South,2026-07-03 22:01:57,WA,Phoenix,Picton East
wa_45d196f4,159.9,2026-07-03T00:00:00,Atlas Fuel Jarrahdale,0,-32.308753,116.006734,,,South,2026-07-03 22:01:57,WA,Atlas,Jarrahdale
wa_bd6e2cec,159.9,2026-07-03T00:00:00,7-Eleven Dayton,0,-31.848009,115.967584,,,North,2026-07-03 22:01:57,WA,7-Eleven,Dayton
wa_893fc4c3,160.9,2026-07-03T00:00:00,BP Allway,0,-35.020486,117.881858,,,South,2026-07-03 22:01:57,WA,BP,Albany
wa_38857e07,161.3,2026-07-03T00:00:00,Liberty West Busselton,0,-33.657357,115.31171,,,South,2026-07-03 22:01:57,WA,Liberty,West Busselton
wa_8f86455a,161.3,2026-07-03T00:00:00,Burk West Swan,0,-31.839036,115.990655,,,North,2026-07-03 22:01:57,WA,Burk,West Swan
wa_081dcda7,161.5,2026-07-03T00:00:00,Maisey Fuels Flores Road,0,-28.756027,114.630711,,,North,2026-07-03 22:01:57,WA,Maisey Fuels,Webberton
wa_5e87e905,161.5,2026-07-03T00:00:00,Geographe Petroleum,0,-33.662853,115.348585,,,South,2026-07-03 22:01:57,WA,Liberty,Busselton
wa_ff59e465,161.9,2026-07-03T00:00:00,7-Eleven Two Rocks,0,-31.49097,115.597517,,,North,2026-07-03 22:01:57,WA,7-Eleven,Two Rocks
wa_afedb327,161.9,2026-07-03T00:00:00,OTR Como,0,-32.012091,115.864427,,,South,2026-07-03 22:01:57,WA,Shell,Como
wa_3804c253,161.9,2026-07-03T00:00:00,OTR Maddington,0,-32.049491,115.981099,,,South,2026-07-03 22:01:57,WA,Shell,Maddington
wa_fa833a04,161.9,2026-07-03T00:00:00,OTR Perth Pier Street,0,-31.944162,115.86904,,,North,2026-07-03 22:01:57,WA,Shell,Perth
wa_9c277ab1,161.9,2026-07-03T00:00:00,S24 Bull Creek,0,-32.057051,115.865845,,,South,2026-07-03 22:01:57,WA,Shell,Bull Creek
wa_28361caf,161.9,2026-07-03T00:00:00,S24 Crystal Brook (Lesmurdie),0,-32.012254,116.035305,,,South,2026-07-03 22:01:57,WA,Shell,Lesmurdie
wa_89a87cdd,161.9,2026-07-03T00:00:00,S24 Forrestfield,0,-31.990555,116.000064,,,South,2026-07-03 22:01:57,WA,Shell,Forrestfield
wa_c053ecc2,161.9,2026-07-03T00:00:00,S24 Redcliffe,0,-31.930469,115.944728,,,North,2026-07-03 22:01:57,WA,Shell,Redcliffe
wa_a6cd8b4f,161.9,2026-07-03T00:00:00,United Leda,0,-32.260187,115.806552,,,South,2026-07-03 22:01:57,WA,United,Leda
wa_2ca3c790,161.9,2026-07-03T00:00:00,United Hamilton Hill,0,-32.074926,115.780931,,,South,2026-07-03 22:01:57,WA,United,Hamilton Hill
wa_dcf10b17,161.9,2026-07-03T00:00:00,United Lexia Truck Stop,0,-31.795189,115.899559,,,North,2026-07-03 22:01:57,WA,United,Lexia
wa_15f41b38,161.9,2026-07-03T00:00:00,7-Eleven Butler,0,-31.635358,115.705554,,,North,2026-07-03 22:01:57,WA,7-Eleven,Butler
wa_dc2747be,161.9,2026-07-03T00:00:00,7-Eleven Malaga,0,-31.856778,115.908098,,,North,2026-07-03 22:01:57,WA,7-Eleven,Malaga
wa_66c5cd61,161.9,2026-07-03T00:00:00,7-Eleven Southern River,0,-32.107884,115.939718,,,South,2026-07-03 22:01:57,WA,7-Eleven,Southern River
wa_df6fb8b1,161.9,2026-07-03T00:00:00,7-Eleven Bassendean,0,-31.9063297,115.9308682,,,North,2026-07-03 22:01:57,WA,7-Eleven,Bassendean
wa_74fea8ea,161.9,2026-07-03T00:00:00,7-Eleven Success,0,-32.126356,115.839346,,,South,2026-07-03 22:01:57,WA,7-Eleven,Success
wa_54b2573b,161.9,2026-07-03T00:00:00,7-Eleven Wattle Grove,0,-32.0,115.985784,,,South,2026-07-03 22:01:57,WA,7-Eleven,Wattle Grove
wa_854eaa16,161.9,2026-07-03T00:00:00,7-Eleven Balcatta,0,-31.860353,115.80964,,,North,2026-07-03 22:01:57,WA,7-Eleven,Balcatta
wa_c31302c9,161.9,2026-07-03T00:00:00,7-Eleven Midland,0,-31.89765,116.01557,,,North,2026-07-03 22:01:57,WA,7-Eleven,Midland
wa_1f72e1da,161.9,2026-07-03T00:00:00,EG Ampol Northam,0,-31.655128,116.671585,,,North,2026-07-03 22:01:57,WA,EG Ampol,Northam
wa_0ea9b489,161.9,2026-07-03T00:00:00,7-Eleven Golden Bay,0,-32.420777,115.761055,,,South,2026-07-03 22:01:57,WA,7-Eleven,Golden Bay
wa_fa2de800,161.9,2026-07-03T00:00:00,GD's Brunswick Roadhouse,0,-33.259623,115.836934,,,South,2026-07-03 22:01:57,WA,Ampol,Brunswick
wa_23745420,161.9,2026-07-03T00:00:00,United Naval Base Truck Stop,0,-32.195425,115.783106,,,South,2026-07-03 22:01:57,WA,United,Naval Base
wa_024de066,161.9,2026-07-03T00:00:00,7-Eleven Alkimos,0,-31.628323,115.689693,,,North,2026-07-03 22:01:57,WA,7-Eleven,Alkimos
wa_c4734255,161.9,2026-07-03T00:00:00,Shell Reddy Express Scarborough,0,-31.892841,115.757287,,,North,2026-07-03 22:01:57,WA,Reddy Express,Scarborough
wa_ae76e96b,161.9,2026-07-03T00:00:00,Shell Reddy Express Kingsley,0,-31.81975,115.805778,,,North,2026-07-03 22:01:57,WA,Reddy Express,Kingsley
wa_2ab977b3,161.9,2026-07-03T00:00:00,Shell Reddy Express Upper Swan Roadhouse,0,-31.774597,116.025849,,,North,2026-07-03 22:01:57,WA,Reddy Express,Upper Swan
wa_ae4dfdd1,161.9,2026-07-03T00:00:00,Shell Reddy Express Jolimont,0,-31.947273,115.811941,,,North,2026-07-03 22:01:57,WA,Reddy Express,Jolimont
wa_573aa98f,161.9,2026-07-03T00:00:00,Shell Reddy Express Claremont,0,-31.982195,115.78389,,,South,2026-07-03 22:01:57,WA,Reddy Express,Claremont
wa_6044a530,161.9,2026-07-03T00:00:00,Shell Reddy Express West Perth,0,-31.945494,115.839719,,,North,2026-07-03 22:01:57,WA,Reddy Express,West Perth
wa_ae364b8d,161.9,2026-07-03T00:00:00,Shell Reddy Express Palmyra,0,-32.047319,115.779904,,,South,2026-07-03 22:01:57,WA,Reddy Express,Palmyra
wa_b3f488c1,161.9,2026-07-03T00:00:00,Shell Reddy Express Victoria Park,0,-31.985535,115.896186,,,South,2026-07-03 22:01:57,WA,Reddy Express,East Victoria Park
wa_a616a192,161.9,2026-07-03T00:00:00,Shell Reddy Express Langford,0,-32.031879,115.938841,,,South,2026-07-03 22:01:57,WA,Reddy Express,Langford
wa_5d913f31,161.9,2026-07-03T00:00:00,Shell Reddy Express Kewdale,0,-31.980262,115.958507,,,South,2026-07-03 22:01:57,WA,Reddy Express,Kewdale
wa_25f83867,161.9,2026-07-03T00:00:00,Shell Reddy Express Lakelands,0,-32.46906,115.759677,,,South,2026-07-03 22:01:57,WA,Reddy Express,Lakelands
wa_654c9d6b,161.9,2026-07-03T00:00:00,Shell Reddy Express Mandurah,0,-32.551075,115.778636,,,South,2026-07-03 22:01:57,WA,Reddy Express,Barragup
wa_0cebea6f,161.9,2026-07-03T00:00:00,Shell Reddy Express Halls Head,0,-32.550115,115.70273,,,South,2026-07-03 22:01:57,WA,Reddy Express,Halls Head
wa_06e3fecf,161.9,2026-07-03T00:00:00,Shell Reddy Express Warwick,0,-31.844434,115.812742,,,North,2026-07-03 22:01:57,WA,Reddy Express,Warwick
wa_05941824,161.9,2026-07-03T00:00:00,Shell Reddy Express Duncraig,0,-31.835583,115.782828,,,North,2026-07-03 22:01:57,WA,Reddy Express,Duncraig
wa_06b616e2,161.9,2026-07-03T00:00:00,Shell Reddy Express Girrawheen,0,-31.834601,115.828903,,,North,2026-07-03 22:01:57,WA,Reddy Express,Girrawheen
wa_7964be0c,161.9,2026-07-03T00:00:00,Shell Reddy Express Malaga,0,-31.863512,115.879279,,,North,2026-07-03 22:01:57,WA,Reddy Express,Malaga
wa_2775b071,161.9,2026-07-03T00:00:00,Shell Reddy Express Middle Swan,0,-31.874449,116.011086,,,North,2026-07-03 22:01:57,WA,Reddy Express,Middle Swan
wa_1d158d90,161.9,2026-07-03T00:00:00,Shell Reddy Express Wembley,0,-31.941023,115.811858,,,North,2026-07-03 22:01:57,WA,Reddy Express,Wembley
wa_96dda8e0,161.9,2026-07-03T00:00:00,Shell Reddy Express Cloverdale,0,-31.965057,115.933164,,,South,2026-07-03 22:01:57,WA,Reddy Express,Cloverdale
wa_d2b58ab9,161.9,2026-07-03T00:00:00,Shell Reddy Express Maddington,0,-32.055352,115.979908,,,South,2026-07-03 22:01:57,WA,Reddy Express,Maddington
wa_591f4db2,161.9,2026-07-03T00:00:00,Shell Reddy Express Willetton,0,-32.039109,115.893756,,,South,2026-07-03 22:01:57,WA,Reddy Express,Willetton
wa_d99c7c4b,161.9,2026-07-03T00:00:00,Shell Reddy Express Forrestfield,0,-31.988699,116.010746,,,South,2026-07-03 22:01:57,WA,Reddy Express,Forrestfield
wa_e96412eb,161.9,2026-07-03T00:00:00,Shell Reddy Express Fremantle,0,-32.063235,115.756663,,,South,2026-07-03 22:01:57,WA,Reddy Express,Fremantle
wa_67e5b97a,161.9,2026-07-03T00:00:00,Shell Reddy Express Perth,0,-31.940953,115.863904,,,North,2026-07-03 22:01:57,WA,Reddy Express,Perth
wa_dcbe5039,161.9,2026-07-03T00:00:00,Shell Reddy Express Brentwood,0,-32.041448,115.848868,,,South,2026-07-03 22:01:57,WA,Reddy Express,Brentwood
wa_ea129728,161.9,2026-07-03T00:00:00,Shell Reddy Express Bicton,0,-32.03413,115.792776,,,South,2026-07-03 22:01:57,WA,Reddy Express,Bicton
wa_37f9d413,161.9,2026-07-03T00:00:00,Shell Reddy Express Northam,0,-31.657795,116.669547,,,North,2026-07-03 22:01:57,WA,Reddy Express,Northam
wa_e66a6cdf,161.9,2026-07-03T00:00:00,Shell Reddy Express Wangara,0,-31.791963,115.852478,,,North,2026-07-03 22:01:57,WA,Reddy Express,Wangara
wa_e26a3fce,161.9,2026-07-03T00:00:00,Shell Reddy Express Ocean Reef,0,-31.76744,115.749421,,,North,2026-07-03 22:01:57,WA,Reddy Express,Ocean Reef
wa_d9316117,161.9,2026-07-03T00:00:00,Shell Reddy Express Ellenbrook,0,-31.775,115.96,,,North,2026-07-03 22:01:57,WA,Reddy Express,Ellenbrook
wa_25141da7,161.9,2026-07-03T00:00:00,Shell Reddy Express Edgewater,0,-31.769548,115.778804,,,North,2026-07-03 22:01:57,WA,Reddy Express,Edgewater
wa_09b26f55,161.9,2026-07-03T00:00:00,Shell Reddy Express Bayswater,0,-31.906734,115.92665,,,North,2026-07-03 22:01:57,WA,Reddy Express,Bayswater
wa_b3b36075,161.9,2026-07-03T00:00:00,Shell Reddy Express Dianella,0,-31.905801,115.8827,,,North,2026-07-03 22:01:57,WA,Reddy Express,Dianella
wa_9122100a,161.9,2026-07-03T00:00:00,Shell Reddy Express Brighton,0,-31.638264,115.69551,,,North,2026-07-03 22:01:57,WA,Reddy Express,Butler
wa_769cd77a,161.9,2026-07-03T00:00:00,Shell Reddy Express Mount Pleasant,0,-32.012511,115.850077,,,South,2026-07-03 22:01:57,WA,Reddy Express,Mount Pleasant
