site_id,price_cpl,reported_at,name,brand_id,latitude,longitude,postcode,google_place_id,region,scraped_at
61401106,161.9,2026-01-04T00:00:30.237,BP Newstead,5,-27.452584,153.041807,4006,ChIJnW80r5NZkWsRgV8e8H0VEto,North,2026-01-04 10:15:00
61401117,215.9,2025-12-29T19:43:34.067,Liberty Highgate Hill,86,-27.483891,153.020309,4101,ChIJFe8PUAtakWsRbLWWKkYfDZs,South,2026-01-04 10:15:00
61401118,159.9,2026-01-03T19:24:00,7-Eleven East Brisbane,113,-27.48469982543029,153.03976776686477,4169,ChIJAb5RTz5akWsRUaQ7BNqKleM,South,2026-01-04 10:15:00
61401119,159.9,2026-01-04T00:00:30.237,BP East Brisbane,5,-27.479316,153.043606,4169,ChIJsaz0ojxakWsRySsGs4BWRXQ,South,2026-01-04 10:15:00
61401124,159.9,2025-12-31T22:55:09.863,Ampol Foodary Woolloongabba,3421066,-27.490753,153.040153,4102,ChIJH3cr9EBakWsRUCyy2e0I8w4,South,2026-01-04 10:15:00
61401126,215.9,2025-12-29T00:27:23.32,BP Milton,5,-27.467628,153.007504,4064,ChIJMfXV3K5QkWsRAnSJkGZzd_I,North,2026-01-04 10:15:00
61401128,215.9,2026-01-02T22:45:43.443,Shell Reddy Express Balmoral,3421193,-27.452187,153.062044,4171,ChIJEVgpfnVZkWsRL6Aaqwnuh-M,North,2026-01-04 10:15:00
61401131,163.5,2025-12-28T01:59:15.383,Shell Hawthorne,20,-27.472155835233433,153.05947272883606,4171,ChIJM3DsuaFbkWsRFZhaZi-BHgs,South,2026-01-04 10:15:00
61401132,161.9,2025-12-27T23:40:18,BP Stanley Street East,5,-27.488386,153.047595,4169,ChIJjdQvXDhakWsRItE81r9aBYU,South,2026-01-04 10:15:00
61401134,161.9,2025-12-27T04:35:10.477,Ampol Foodary Camp Hill,3421066,-27.491978,153.064833,4152,ChIJ_2JF88pbkWsRVGgat1rOx6Q,South,2026-01-04 10:15:00
61401136,161.9,2025-12-30T23:31:20.017,Caltex Norman Park,2,-27.483909,153.063748,4170,ChIJ62HWbM1bkWsRY3Ct22ougIk,South,2026-01-04 10:15:00
61401137,161.9,2025-12-28T07:31:15.037,Freedom Fuels Seven Hills,110,-27.479358,153.071094,4170,ChIJ3Xvp1NBbkWsRTF3aRbJf3ZA,South,2026-01-04 10:15:00
61401138,215.9,2025-12-29T00:05:39.153,Shell Reddy Express Camp Hill,3421193,-27.492781,153.082664,4152,ChIJt2qBncFbkWsRp-9LuEuLPxA,South,2026-01-04 10:15:00
61401140,161.9,2025-12-29T05:43:04.92,Caltex Morningside,2,-27.46640548892771,153.07819476837022,4170,ChIJybOuy2VZkWsRbGF140zLwHI,North,2026-01-04 10:15:00
61401142,160.9,2025-12-31T22:55:09.863,Ampol Foodary Colmslie,3421066,-27.466503,153.079198,4170,ChIJh3pT0mVZkWsRChcAEc7cMrw,North,2026-01-04 10:15:00
61401147,169.9,2025-12-23T00:14:01.847,BP Cannon Hill,5,-27.469816,153.095634,4170,ChIJBbZMkFpZkWsRvgpSchQr7eY,North,2026-01-04 10:15:00
61401148,215.9,2025-12-28T01:50:36.033,Shell Reddy Express Cannon Hill,3421193,-27.471389,153.095619,4170,ChIJYSDGFVpZkWsRgelgZG13Otk,South,2026-01-04 10:15:00
61401149,215.9,2025-12-29T22:00:45.393,Shell Reddy Express Tingalpa,3421193,-27.474597374792506,153.12096549570083,4173,ChIJ370vfaVekWsRkqIXFgC1uKM,South,2026-01-04 10:15:00
61401155,215.9,2026-01-02T22:15:09.627,Ampol Foodary Carindale,3421066,-27.505555,153.099646,4152,ChIJtw91yY1bkWsRESXAqBZbUvU,South,2026-01-04 10:15:00
61401156,184.5,2026-01-03T21:24:18.237,Freedom Fuels Thorneside,110,-27.488687,153.194782,4158,ChIJB7AluARekWsRoknPLPgwPz0,South,2026-01-04 10:15:00
61401157,215.9,2026-01-04T00:00:00,EG Ampol Birkdale,3421073,-27.494931,153.212762,4159,ChIJJwlYTq5gkWsRo76rItS39YM,South,2026-01-04 10:15:00
61401159,215.9,2026-01-04T00:00:30.237,BP Wellington Point,5,-27.487062,153.238493,4160,ChIJs71gssJgkWsR61sU3yleKcY,South,2026-01-04 10:15:00
61401160,161.9,2025-12-26T00:55:47.457,BP Cleveland,5,-27.523907,153.258759,4163,ChIJmabHcdpmkWsRx0w-8cjj2Q0,South,2026-01-04 10:15:00
61401167,215.9,2026-01-04T00:05:09.91,Ampol Foodary Kenmore,3421066,-27.507802,152.948185,4069,ChIJbUelnL5RkWsRetraDlB2XKw,South,2026-01-04 10:15:00
61401170,215.9,2026-01-01T23:50:39.767,Shell Reddy Express Chapel Hill,3421193,-27.504769592318205,152.96077843320464,4069,ChIJRzXv5rFRkWsRwj8FFy4uTig,South,2026-01-04 10:15:00
61401172,215.9,2025-12-29T21:50:38.167,Shell Reddy Express Taringa,3421193,-27.491609,152.994039,4067,ChIJ79oWCo1QkWsRGAD9odU59do,South,2026-01-04 10:15:00
61401173,169.9,2026-01-03T22:12:48,BP Indooroopilly,5,-27.499530327092497,152.9754396405449,4068,ChIJBQwKWlZQkWsR9spiMwaIWfk,South,2026-01-04 10:15:00
61401177,159.9,2026-01-03T23:41:00,7-Eleven Graceville,113,-27.521931,152.980164,4075,ChIJz-dhzDlQkWsRABldX0sal-g,South,2026-01-04 10:15:00
61401180,154.7,2026-01-02T23:10:07.037,United Sherwood,23,-27.532831,152.983247,4075,ChIJLZUgR41RkWsRyI5jDOf3DCI,South,2026-01-04 10:15:00
61401183,157.9,2025-12-22T11:30:10.617,Ampol Foodary Annerley,3421066,-27.512236,153.032024,4103,ChIJCQ4QZIlakWsRy5k83oVzmKo,South,2026-01-04 10:15:00
61401185,215.9,2026-01-03T19:24:00,7-Eleven Fairfield Gardens,113,-27.508609,153.025429,4103,ChIJf6KA6IdakWsRyYmEAovHeYw,South,2026-01-04 10:15:00
61401188,215.9,2026-01-03T19:24:00,7-Eleven Yeronga,113,-27.519285,153.015135,4104,ChIJHykiiZ1akWsR6eo2ZjUfs-E,South,2026-01-04 10:15:00
61401189,159.9,2026-01-03T19:24:00,7-Eleven Moorvale,113,-27.524123,153.023568,4105,ChIJXyWDdplakWsRPFj6tkp0BJY,South,2026-01-04 10:15:00
61401195,159.9,2026-01-04T00:00:00,EG Ampol Moorooka,3421073,-27.539627,153.022022,4105,ChIJBcsHe69akWsRrz9AT2DPDxU,South,2026-01-04 10:15:00
61401197,154.5,2025-12-25T03:55:11.487,U-Go Rocklea,3421183,-27.538641,153.005432,4106,ChIJ4Ro9-gRQkWsRYX-iJB95ozA,South,2026-01-04 10:15:00
61401199,161.9,2025-12-27T23:40:48,BP Stones Corner,5,-27.502373,153.045544,4120,ChIJAQ3MbVtakWsRPPvVxrhoIEk,South,2026-01-04 10:15:00
61401200,159.9,2026-01-03T21:16:00,7-Eleven Greenslopes,113,-27.504612,153.040209,4120,ChIJD8x02V1akWsR9b6iqySBPiM,South,2026-01-04 10:15:00
61401206,164.9,2025-12-31T10:10:10.607,U-Go Park Ridge,3421183,-27.696645,153.038101,4125,ChIJ43dOgMdHkWsR_E_M5QBFqMc,South,2026-01-04 10:15:00
61401210,170.9,2025-12-22T04:25:05.753,NightOwl BP Holland Park,5,-27.515107,153.072439,4121,ChIJU7dOZKhbkWsR4MW7yFZ7AZo,South,2026-01-04 10:15:00
61401212,215.9,2025-12-27T04:05:37.9,Shell Reddy Express Logan Rd,3421193,-27.529893329941103,153.07154507422237,4122,ChIJsTHT9hpbkWsR-_q6758xgZQ,South,2026-01-04 10:15:00
61401218,159.5,2025-12-29T02:38:24.993,Liberty Deception Bay,86,-27.199148,153.032128,4508,ChIJM-b4qzLvk2sRS50LEcMFwic,North,2026-01-04 10:15:00
61401224,215.9,2026-01-01T00:50:09.603,Ampol Foodary Kippa-Ring,3421066,-27.226826,153.084902,4021,ChIJEzVIWI3lk2sRoKCiLoFYwkk,North,2026-01-04 10:15:00
61401225,162.9,2025-12-30T00:57:22.54,Metro Clontarf,57,-27.241169,153.086872,4019,ChIJaT80nqTlk2sRgi-_AOtcoyU,North,2026-01-04 10:15:00
61401227,215.9,2025-12-27T07:33:26.28,Caltex Redcliffe,2,-27.222051,153.110819,4020,ChIJs_RgRwDmk2sRwBCE-FsLmEA,North,2026-01-04 10:15:00
61401228,215.9,2026-01-03T19:24:00,7-Eleven Redcliffe,113,-27.230354,153.109317,4020,ChIJ7_WU8wfmk2sR8UTVUZfn1Dg,North,2026-01-04 10:15:00
61401229,215.9,2025-12-27T05:45:11.157,Ampol Foodary Redcliffe,3421066,-27.229577,153.102033,4020,ChIJXW5zUPvlk2sRx2VeSOrSVDU,North,2026-01-04 10:15:00
61401234,215.9,2025-12-24T07:45:43.867,Shell Reddy Express Clontarf,3421193,-27.257355,153.086063,4019,ChIJ90Lmmsrlk2sRIQdZF8A9hLA,North,2026-01-04 10:15:00
61401235,173.9,2025-12-31T06:08:09.413,BP Boulevarde,5,-27.255871,153.094417,4019,ChIJO9Qh0c3lk2sRQJzTFzNN5xw,North,2026-01-04 10:15:00
61401238,179.9,2026-01-02T19:30:44,Red Dog Petroleum,12,-27.254478,152.982078,4503,ChIJNSFdLRL7k2sRWUYyqmurz1Y,North,2026-01-04 10:15:00
61401246,163.9,2026-01-03T23:22:00,7-Eleven Strathpine,113,-27.307774,152.990528,4500,ChIJW4hHe-r8k2sRJWfuWa0Pj2Q,North,2026-01-04 10:15:00
61401249,215.9,2026-01-03T19:24:00,7-Eleven Eatons Hill,113,-27.337933,152.960099,4037,ChIJr3UNv6P9k2sRPC9fEYSLMek,North,2026-01-04 10:15:00
61401250,215.9,2026-01-03T19:24:00,7-Eleven Bald Hills,113,-27.319376,153.006967,4036,ChIJJ2E6_4T9k2sRyVGAWFxlBTA,North,2026-01-04 10:15:00
61401252,158.9,2026-01-02T00:40:10.107,U-Go Bracken Ridge,3421183,-27.319382,153.040903,4017,ChIJ6XIgzBXjk2sRzrmPdaqKqH4,North,2026-01-04 10:15:00
61401254,159.9,2026-01-01T21:02:53,Pacific Petroleum Deagon,2418994,-27.325029,153.059461,4017,ChIJgUULhAnjk2sR7Wkt3T44ZGQ,North,2026-01-04 10:15:00
61401255,158.5,2025-12-27T03:49:03,Metro Petroleum Sandgate,57,-27.321786,153.067499,4017,ChIJP0hAoALjk2sR68A99WnVfOM,North,2026-01-04 10:15:00
61401257,159.9,2026-01-03T19:24:00,7-Eleven Sandgate,113,-27.321088,153.067931,4017,ChIJTRViBKLjk2sREagrJr1SbMg,North,2026-01-04 10:15:00
61401258,169.9,2025-12-29T06:26:28.913,BP Bracken Ridge,5,-27.330999,153.041854,4017,ChIJ6zsE0x7jk2sRqDCa_CfHVoc,North,2026-01-04 10:15:00
61401261,158.9,2026-01-04T00:00:00,EG Ampol Deagon,3421073,-27.334055,153.059565,4017,ChIJO8-_Igfjk2sR78Bq2rlScSI,North,2026-01-04 10:15:00
61401263,166.9,2025-12-23T20:19:51.297,Caltex Zillmere,2,-27.366786,153.037181,4034,ChIJj4S5FL3ik2sReZHBn_0WAjY,North,2026-01-04 10:15:00
61401264,169.9,2026-01-03T19:24:00,7-Eleven Aspley,113,-27.358443,153.017037,4034,ChIJvUnyhbTik2sRcEO6pXEQ8lI,North,2026-01-04 10:15:00
61401265,169.9,2025-12-22T01:05:38.377,Shell Reddy Express Aspley,3421193,-27.359961,153.016587,4034,ChIJWzIdabPik2sRzep1g2BECXk,North,2026-01-04 10:15:00
61401272,215.9,2026-01-02T04:35:36.47,Shell Reddy Express Stafford Heights,3421193,-27.391747,153.011652,4053,ChIJxRrSSPRXkWsR7UwiDNgNOJY,North,2026-01-04 10:15:00
61401276,166.9,2026-01-03T22:02:00,7-Eleven Aspley,113,-27.364758,153.026257,4034,ChIJ4d-xC7Dik2sRr6WfFTu-7Bo,North,2026-01-04 10:15:00
61401279,159.9,2026-01-04T00:00:30.237,BP Connect Virginia,5,-27.374203,153.061916,4014,ChIJU85lVn3ik2sREWBV_wxcfJM,North,2026-01-04 10:15:00
61401280,163.9,2026-01-01T23:20:38.047,Shell Reddy Express Geebung,3421193,-27.374166,153.035974,4034,ChIJK5EZhqHik2sRar2zyiCmz6A,North,2026-01-04 10:15:00
61401281,163.9,2026-01-04T00:00:00,EG Ampol Chermside,3421073,-27.375007,153.024566,4032,ChIJdzeeQ6jik2sR9yfJRWmLoAM,North,2026-01-04 10:15:00
61401282,166.9,2026-01-03T22:23:37.347,BP Geebung,5,-27.379293,153.046309,4034,ChIJCeA1sZ3ik2sRSg13KZzToRM,North,2026-01-04 10:15:00
61401288,215.9,2025-12-31T19:05:17.673,Caltex Nundah,2,-27.391946,153.058897,4012,ChIJd6ICqn1YkWsRtXVr60tSVKY,North,2026-01-04 10:15:00
61401291,160.9,2026-01-04T00:00:11.453,Ampol Foodary Nundah,3421066,-27.398473,153.059252,4012,ChIJy879TmJYkWsR6mQsNJ_TBrg,North,2026-01-04 10:15:00
61401292,215.9,2026-01-02T22:10:10.36,Ampol Foodary West Chermside,3421066,-27.380227,153.022597,4032,ChIJgddj6QZYkWsR_5YHTx6hEUs,North,2026-01-04 10:15:00
61401296,159.5,2026-01-03T20:31:20.253,Freedom Fuels Nudgee,110,-27.386791,153.087063,4014,ChIJL98jHAvik2sR1kkPZCwKgAE,North,2026-01-04 10:15:00
61401298,161.9,2026-01-04T00:00:30.237,BP Northgate,5,-27.393208,153.072252,4013,ChIJLd5zvIRYkWsRUbCmJpLymlI,North,2026-01-04 10:15:00
61401301,215.9,2026-01-01T01:05:11.297,Ampol Foodary Arana Hills,3421066,-27.396824,152.960709,4054,ChIJ7Vsj7VFWkWsRNfgMMTTXfgQ,North,2026-01-04 10:15:00
61401302,215.9,2025-12-24T07:50:37.447,Shell Reddy Express Arana Hills,3421193,-27.397654,152.958951,4054,ChIJD4VFrVFWkWsR23Fa3bz0zqs,North,2026-01-04 10:15:00
61401307,215.9,2026-01-04T00:00:30.237,BP Ferny Grove,5,-27.402342,152.937156,4055,ChIJLWi45olWkWsRb2lLJtlfFvo,North,2026-01-04 10:15:00
61401309,161.9,2025-12-29T00:29:23.447,Caltex Everton Park,2,-27.401257,152.986898,4053,ChIJcU_jy7xXkWsRrY5ywkJPmHw,North,2026-01-04 10:15:00
61401316,180.9,2025-12-14T19:07:25.533,BP Stafford,5,-27.409316,153.008034,4053,ChIJ5ULRLYRXkWsRprwZHUYCOHc,North,2026-01-04 10:15:00
61401323,157.9,2026-01-04T00:00:30.237,BP Express Ashgrove,5,-27.439192,152.989914,4060,ChIJ9ccbRD9XkWsRS_OIg-DnK58,North,2026-01-04 10:15:00
61401324,163.9,2026-01-03T19:24:00,7-Eleven Newmarket,113,-27.438767,153.007379,4051,ChIJaxOJ9F1XkWsRsjCTuDr2xRk,North,2026-01-04 10:15:00
61401325,163.5,2025-12-29T03:04:59.333,NightOwl Shell Kelvin Grove,20,-27.445435,153.008589,4059,ChIJzxji3VtXkWsRhpsDomLZ0N0,North,2026-01-04 10:15:00
61401328,167.9,2025-12-29T23:17:47.747,BP Kedron,5,-27.40208501541335,153.031880046627,4031,ChIJweTQzz1YkWsRCIfEA6WhIXg,North,2026-01-04 10:15:00
61401329,169.9,2025-12-29T00:37:34.81,Caltex Kedron,2,-27.407241,153.032891,4031,ChIJx8ihZjlYkWsRgMFxsU4_D94,North,2026-01-04 10:15:00
61401330,167.5,2025-12-20T21:48:42.787,Freedom Fuels Wooloowin,110,-27.408291,153.047525,4030,ChIJIfLcgUNYkWsRI6lann9Z9Vg,North,2026-01-04 10:15:00
61401334,215.9,2026-01-03T23:50:11.54,Ampol Foodary Stafford,3421066,-27.411093,153.023635,4053,ChIJAQT9By9YkWsRamqZAebQyHU,North,2026-01-04 10:15:00
61401341,215.9,2025-12-19T08:29:17.747,Caltex Clayfield,2,-27.427403,153.050405,4011,ChIJO3y9Yq1ZkWsRepO6QV6inY4,North,2026-01-04 10:15:00
61401343,159.7,2026-01-02T03:19:41,Liberty Grange,86,-27.424641,153.014052,4051,ChIJ-RW88n1XkWsR8zvsSTzIERA,North,2026-01-04 10:15:00
61401344,163.7,2026-01-02T03:23:41,Caltex Grange,2,-27.426624,153.017032,4051,ChIJOW4SUtZZkWsRcr87CwOOwjk,North,2026-01-04 10:15:00
61401347,161.9,2026-01-04T00:00:30.237,BP Windsor,5,-27.43604130193541,153.03187014847944,4030,ChIJg5NGO8RZkWsRRs6wceKWEGk,North,2026-01-04 10:15:00
61401348,159.7,2026-01-02T16:10:12.223,U-Go Lutwyche,3421183,-27.425953,153.032041,4030,ChIJIUIVC8xZkWsRy4B4Ze10oGU,North,2026-01-04 10:15:00
61401349,215.9,2026-01-03T19:24:00,7-Eleven Albion,113,-27.4289939652634,153.036903,4010,ChIJmbEbk8lZkWsRJPhgf2VF04k,North,2026-01-04 10:15:00
61401353,163.9,2026-01-04T00:00:30.237,BP Connect Hamilton,5,-27.439652,153.049148,4007,ChIJMwuSJbtZkWsROTxbuKtjHH4,North,2026-01-04 10:15:00
61401357,215.9,2026-01-03T19:24:00,7-Eleven Ascot,113,-27.428241,153.062278,4007,ChIJI1W5BgBZkWsRbfXsDZgDGMo,North,2026-01-04 10:15:00
61401359,215.9,2026-01-02T22:10:10.36,Ampol Eagle Farm,3421066,-27.434674,153.079056,4009,ChIJO59fPBxZkWsRaD1B3dCNDbY,North,2026-01-04 10:15:00
61401365,189.9,2026-01-02T07:19:01,BP Lindum,5,-27.443116,153.143691,4178,ChIJYSxUMB1fkWsR8Xhou68mOMk,North,2026-01-04 10:15:00
61401366,215.9,2025-12-24T07:50:37.447,Shell Reddy Express Wynnum,3421193,-27.443582,153.157939,4178,ChIJ_yNNOKpfkWsRiacG2Uq4Z1U,North,2026-01-04 10:15:00
61401367,215.9,2025-12-27T00:47:23.73,Caltex Wynnum West,2,-27.459016,153.151452,4178,ChIJJfRMI_dekWsRxk2hcx13yVk,North,2026-01-04 10:15:00
61401371,215.9,2025-12-26T06:31:17,Caltex Wynnum,2,-27.45463473648407,153.16652018650822,4178,ChIJH1hEGlJekWsR8GiekfCO5x0,North,2026-01-04 10:15:00
61401373,215.9,2026-01-04T00:00:30.237,BP Manly,5,-27.457538,153.178798,4179,ChIJA6fH9UlekWsRjfwfxMxWZ84,North,2026-01-04 10:15:00
61401375,215.9,2026-01-03T19:24:00,7-Eleven The Gap,113,-27.442904,152.943808,4061,ChIJVeRcjLVWkWsR3M1v4PL193w,North,2026-01-04 10:15:00
61401377,215.9,2026-01-04T00:00:30.237,BP The Gap,5,-27.446887,152.959528,4061,ChIJIzDcTptXkWsRtG89qfGa-Ik,North,2026-01-04 10:15:00
61401380,159.9,2026-01-03T21:16:00,7-Eleven Ashgrove,113,-27.445996,152.991244,4060,ChIJEc42_DdXkWsRwOVTIsg1K3A,North,2026-01-04 10:15:00
61401382,169.9,2026-01-01T02:00:22,BP Ashgrove (Waterworks Rd),5,-27.446283,152.997578,4060,ChIJG3I650VXkWsRIMSTJysRtY4,North,2026-01-04 10:15:00
61401386,175.9,2025-12-23T21:43:50.08,Bizzells Garage Paddington,12,-27.459076,152.998383,4064,ChIJUeBwR7NQkWsR8BsXEmf7w3g,North,2026-01-04 10:15:00
61401391,175.9,2025-12-31T22:55:09.863,Ampol Foodary Toowong,3421066,-27.478292616581154,152.98579629447744,4066,ChIJK6VaGupQkWsRMHqWzZOaeXg,South,2026-01-04 10:15:00
61401393,215.9,2025-12-29T03:05:38.913,Shell Reddy Express Milton,3421193,-27.473913230061896,153.00392841104505,4064,ChIJPYHZx6RQkWsR0hSEGrZFrik,South,2026-01-04 10:15:00
61401398,215.9,2025-12-27T03:15:46.677,Shell Reddy Express Mount Gravatt,3421193,-27.542090460066003,153.082005,4122,ChIJ5zcHRj5bkWsRtUE14jlmmks,South,2026-01-04 10:15:00
61401399,215.9,2026-01-03T19:24:00,7-Eleven Mt Gravatt East,113,-27.531577,153.093146,4122,ChIJbazs0HFbkWsRwnbctOHBoro,South,2026-01-04 10:15:00
61401409,163.9,2025-12-28T22:11:44,Metro Petroleum Thornlands,57,-27.548071,153.265178,4164,ChIJP61aDNtnkWsRgkhh5ekZtAM,South,2026-01-04 10:15:00
61401411,215.9,2025-12-27T05:55:10.38,Ampol Foodary Jindalee,3421066,-27.536514,152.941898,4074,ChIJXf-nGh9OkWsRPX9xo2nJNLI,South,2026-01-04 10:15:00
61401413,177.9,2025-12-28T22:10:55,BP Riverhills,5,-27.556355,152.914572,4074,ChIJKw2QYtlNkWsRsAJvxmIkYqg,South,2026-01-04 10:15:00
61401417,169.9,2026-01-02T23:11:11.177,BP Oxley,5,-27.553377,152.979052,4075,ChIJESDz9s9PkWsRVFH3LLGtbF0,South,2026-01-04 10:15:00
61401421,159.9,2025-12-29T05:49:19.423,Freedom Fuels Inala,110,-27.577748,152.973748,4077,ChIJQcslUalPkWsR-zd7-pnc05g,South,2026-01-04 10:15:00
61401422,215.9,2026-01-03T19:24:00,7-Eleven Durack,113,-27.579387,152.974637,4077,ChIJTT33aalPkWsRS5RheOuRmco,South,2026-01-04 10:15:00
61401426,155.9,2026-01-01T23:15:44.403,Shell Reddy Express Granard Rd,3421193,-27.558051,153.015628,4106,ChIJn_lnu1dFkWsR3hKuZ9MZMsE,South,2026-01-04 10:15:00
61401427,154.5,2025-12-29T23:45:09.013,Pacific Fuel Solutions Rocklea,3421162,-27.558117,153.006258,4106,ChIJRe966fBPkWsReVEX4C8Z8Ag,South,2026-01-04 10:15:00
61401428,215.9,2026-01-01T23:50:39.767,Shell Reddy Express Rocklea,3421193,-27.560256,153.000988,4106,ChIJ8xczXO5PkWsRws03bhExQfg,South,2026-01-04 10:15:00
61401431,169.9,2025-12-29T01:00:07.953,NightOwl BP Salisbury,5,-27.545888,153.038591,4107,ChIJ24NBwmhbkWsR5IpfmXZbYxM,South,2026-01-04 10:15:00
61401436,215.9,2026-01-03T05:21:06.077,NightOwl BP Sunnybank,5,-27.566916,153.064574,4109,ChIJ0_23_9ZEkWsRMELaFeQkq1s,South,2026-01-04 10:15:00
61401438,215.9,2026-01-03T22:15:44.187,Shell Reddy Express Sunnybank,3421193,-27.575889,153.062992,4109,ChIJMU62Q99EkWsRG4pUaEIlfKM,South,2026-01-04 10:15:00
61401440,157.5,2025-12-31T04:46:34.663,Metro Petroleum Sunnybank,57,-27.57032397205679,153.055617,4109,ChIJb_CfAQBFkWsRiqVDyUOV71s,South,2026-01-04 10:15:00
61401441,159.9,2026-01-03T19:24:00,7-Eleven Acacia Ridge,113,-27.589068,153.027286,4110,ChIJtRqtU3dFkWsREFPYb2PDV2M,South,2026-01-04 10:15:00
61401444,159.9,2026-01-03T19:24:00,7-Eleven Acacia Ridge East,113,-27.575428,153.039586,4110,ChIJu3M3XBVFkWsRbMle5BF2TTs,South,2026-01-04 10:15:00
61401445,161.9,2026-01-03T21:18:00,7-Eleven Wishart,113,-27.556364,153.089765,4122,ChIJ562QF0lbkWsR09235KSctBg,South,2026-01-04 10:15:00
61401446,165.9,2025-12-23T00:28:50.793,BP Wishart,5,-27.561518,153.089268,4122,ChIJxy6JCEtbkWsR0Xi-YHz41LE,South,2026-01-04 10:15:00
61401447,215.9,2026-01-04T00:00:00,EG Ampol Macgregor,3421073,-27.562252,153.074394,4109,ChIJnRB3Q81EkWsRF6qgxOj2NDM,South,2026-01-04 10:15:00
61401448,215.9,2026-01-01T23:05:36.567,Shell Reddy Express Kessels Rd,3421193,-27.561152,153.078726,4122,ChIJraoKTzNbkWsRX-Y_slDOx-Y,South,2026-01-04 10:15:00
61401450,215.9,2025-12-31T07:04:24.423,Caltex Eight Mile Plains,2,-27.575212,153.091639,4113,ChIJSbD-qLBEkWsRfO7_tz04sv8,South,2026-01-04 10:15:00
61401453,158.0,2025-12-22T23:40:03.03,OOM Energy Underwood,12,-27.598823,153.109346,4119,ChIJNd7TsZFDkWsRHaDUDL3sgOE,South,2026-01-04 10:15:00
61401457,215.9,2026-01-03T19:24:00,7-Eleven North Ipswich,113,-27.603119,152.761629,4305,ChIJW3rkA2q0lmsRF2KD8ON8mZY,South,2026-01-04 10:15:00
61401460,215.9,2026-01-03T19:24:00,7-Eleven Dinmore,113,-27.598004,152.832107,4303,ChIJ-ecJ3lVLkWsRoq6J06TJvoI,South,2026-01-04 10:15:00
61401461,161.9,2025-12-27T23:21:25.217,Freedom Fuels Ipswich,110,-27.601119,152.826338,4304,ChIJoTMVqqy0lmsR2Jtf-VqtMnw,South,2026-01-04 10:15:00
61401462,215.9,2026-01-02T21:50:11.19,Ampol Foodary Goodna,3421066,-27.608598,152.897931,4300,ChIJoeSxxQpMkWsRlxQh370RNBA,South,2026-01-04 10:15:00
61401471,215.9,2026-01-03T19:24:00,7-Eleven Algester,113,-27.612647,153.039653,4115,ChIJEfVB5r1FkWsRSHGSmh7gkaQ,South,2026-01-04 10:15:00
61401472,215.9,2025-12-31T06:20:59,Caltex Stretton,2,-27.61142680060479,153.0635548637543,4116,ChIJJ6VtllJEkWsReuQ5cSnN_Nc,South,2026-01-04 10:15:00
61401473,158.9,2026-01-01T23:15:44.403,Shell Reddy Express Woodridge,3421193,-27.624443,153.116876,4114,ChIJVUoSbI9DkWsRt5J1NaBvxNU,South,2026-01-04 10:15:00
61401477,159.9,2026-01-03T19:24:00,7-Eleven Springwood,113,-27.61011953521952,153.12405772883605,4127,ChIJsU8_3HZDkWsRxfH1cCI4xJU,South,2026-01-04 10:15:00
61401478,215.9,2026-01-03T00:45:45.887,Shell Reddy Express Springwood,3421193,-27.63364586120715,153.13148941964337,4127,ChIJO9FzsJVDkWsRKOz74KISMts,South,2026-01-04 10:15:00
61401479,159.9,2026-01-03T19:24:00,7-Eleven Woodridge,113,-27.619142,153.104903,4114,ChIJKZQRqHlEkWsRXqQbxTyKOG4,South,2026-01-04 10:15:00
61401480,215.9,2026-01-02T01:45:44.39,Shell Reddy Express Daisy Hill,3421193,-27.644857,153.153469,4127,ChIJfQwO-cpDkWsRP1C645DxVqg,South,2026-01-04 10:15:00
61401483,215.9,2026-01-03T19:24:00,7-Eleven Logan City,113,-27.641222,153.107393,4114,ChIJ_VfcSQhEkWsRAtyDigaYnFM,South,2026-01-04 10:15:00
61401485,169.9,2025-12-31T00:09:50,BP Mt Cotton,5,-27.637353,153.239623,4165,ChIJi47xu1JokWsR4_l3Td6KHd4,South,2026-01-04 10:15:00
61401487,215.9,2026-01-03T23:14:05.203,BP Redland Bay,5,-27.606017,153.288087,4165,ChIJqZWzNKhokWsR1iF0gB3zh5g,South,2026-01-04 10:15:00
61401492,158.9,2025-12-30T21:43:24,Metro West Ipswich,57,-27.619048,152.749764,4305,ChIJwRU6jDO0lmsRZflGegor9Jg,South,2026-01-04 10:15:00
61401496,215.9,2025-12-27T05:55:10.38,Ampol Foodary Leichhardt,3421066,-27.627612,152.743589,4305,ChIJCWU-7tG1lmsRIjZibSAK7Ho,South,2026-01-04 10:15:00
61401497,159.5,2025-12-31T01:28:34.597,Pacific Petroleum Churchill,2418994,-27.644063607517694,152.75105032638933,4305,ChIJcVsSJdu1lmsR1zOAEcjCiqM,South,2026-01-04 10:15:00
61401500,215.9,2025-12-28T03:55:09.737,Ampol Foodary Booval,3421066,-27.613641,152.792314,4304,ChIJ4WiRje20lmsR9A5X1j40xhg,South,2026-01-04 10:15:00
61401502,159.5,2025-12-27T07:10:32,Metco Silkstone,12,-27.621481,152.789444,4304,ChIJk-Aolfq0lmsRGGlTvqSOyeQ,South,2026-01-04 10:15:00
61401505,159.5,2025-12-31T02:10:06.573,United Yamanto,23,-27.6552275199991,152.74757596772153,4305,ChIJffDWFee1lmsRq2CrKA433RA,South,2026-01-04 10:15:00
61401506,179.9,2025-12-22T01:07:30,BP Yamanto,5,-27.660285,152.740233,4305,ChIJPU-yFvm1lmsRzKGr0Az-N7I,South,2026-01-04 10:15:00
61401507,161.9,2026-01-01T23:30:44.677,Shell Reddy Express Yamanto,3421193,-27.660171,152.739296,4305,ChIJybEfO_m1lmsRnv5eNglSgqw,South,2026-01-04 10:15:00
61401508,215.9,2026-01-03T19:24:00,7-Eleven Redbank Plains,113,-27.644962,152.871677,4301,ChIJ534fjQBLkWsRpbeyTMyTKso,South,2026-01-04 10:15:00
61401510,158.9,2025-12-23T04:17:37,Speed Fuel Kingston,12,-27.658841,153.116903,4114,ChIJbYFeXFZBkWsRqAprk14lpsA,South,2026-01-04 10:15:00
61401512,215.9,2026-01-03T19:24:00,7-Eleven Marsden,113,-27.680481,153.114522,4132,ChIJu9TSYjZBkWsRA5pdZdAFJm0,South,2026-01-04 10:15:00
61401514,215.9,2026-01-01T00:50:09.603,Ampol Foodary Waterford,3421066,-27.691549,153.134431,4133,ChIJ8zqp8hdBkWsRx9b4Ne0lt6o,South,2026-01-04 10:15:00
61401517,215.9,2026-01-03T23:00:46.163,Shell Reddy Express Loganholme,3421193,-27.663192,153.177483,4129,ChIJdcItJiJCkWsR02wmPisL4t8,South,2026-01-04 10:15:00
61401523,215.9,2026-01-03T23:55:10.17,Ampol Foodary Carseldine,3421066,-27.342121,153.010681,4034,ChIJQ817ii39k2sRa2YSmPiqHTw,North,2026-01-04 10:15:00
61401530,159.9,2025-12-28T23:45:44.47,Shell Reddy Express Coorparoo,3421193,-27.496996,153.055324,4151,ChIJzS12TUlakWsR2Bi9T5MCsI4,South,2026-01-04 10:15:00
61401531,215.9,2025-12-26T23:30:44.293,Shell Reddy Express Alexandra Hills,3421193,-27.521101,153.211992,4161,ChIJTXX1_1xnkWsRNJHj7fgppFk,South,2026-01-04 10:15:00
61401534,159.9,2025-12-27T03:15:46.677,Shell Reddy Express Rochedale,3421193,-27.595573,153.121562,4123,ChIJixIPjGhDkWsRO1SEeo1lgEA,South,2026-01-04 10:15:00
61401535,215.9,2026-01-01T22:35:37.177,Shell Reddy Express Calamvale,3421193,-27.632655,153.047203,4116,ChIJFeDVHttFkWsR6Cozjn0wYVE,South,2026-01-04 10:15:00
61401537,161.9,2026-01-01T22:35:37.177,Shell Reddy Express Virginia,3421193,-27.369917,153.061735,4014,ChIJafsseWLik2sRKVXU5l-E3c4,North,2026-01-04 10:15:00
61401541,215.9,2026-01-02T22:05:10.963,Ampol Foodary Hamilton,3421066,-27.438408,153.066889,4007,ChIJudwQcgZZkWsRDxvrtoLgtPA,North,2026-01-04 10:15:00
61401543,215.9,2026-01-03T19:24:00,7-Eleven Kensington Hills,113,-27.296911,152.975214,4500,ChIJsRbhPYz8k2sRV2sdEjjgzGc,North,2026-01-04 10:15:00
61401544,161.9,2026-01-04T00:00:30.237,BP Connect Bowen Bridge,5,-27.44523630788419,153.02938104662704,4006,ChIJPwV6rOlZkWsRhp5bhOwE7hE,North,2026-01-04 10:15:00
61401545,174.5,2026-01-03T20:35:05.147,Freedom Fuels Mt Gravatt,110,-27.536391,153.087947,4122,ChIJ7Rr8fGtbkWsRRh0O1Nr4sgg,South,2026-01-04 10:15:00
61401546,159.9,2026-01-04T00:00:30.237,BP Connect Springwood,5,-27.622437,153.127984,4127,ChIJ8S5gA-YUkWsR-d8BL2tVDgg,South,2026-01-04 10:15:00
61401547,215.9,2026-01-03T19:24:00,7-Eleven Kingston,113,-27.644668,153.118247,4114,ChIJtUzPe_BDkWsR7w70GTNxol4,South,2026-01-04 10:15:00
61401550,159.7,2025-12-29T12:04:14.68,Caltex Rochedale,2,-27.580123,153.124691,4123,ChIJdcXDKKlDkWsR4CQ9Avs-kTQ,South,2026-01-04 10:15:00
61401551,215.9,2026-01-04T00:00:00,EG Ampol Kenmore,3421073,-27.507567,152.940427,4069,ChIJwXLmWpRRkWsR-XS-BGmWzDo,South,2026-01-04 10:15:00
61401554,215.9,2025-12-29T22:05:38.693,Shell Reddy Express Holland Park,3421193,-27.526712,153.055956,4121,ChIJOV3hgORakWsRNfceM-8t5jY,South,2026-01-04 10:15:00
61401555,158.9,2026-01-02T00:40:18.59,Caltex Woodridge,2,-27.627909,153.117731,4114,ChIJlwO6io5DkWsRennw6Fhd-60,South,2026-01-04 10:15:00
61401560,215.9,2025-12-31T06:18:26.677,Caltex Kalinga,2,-27.410487,153.047567,4030,ChIJLTnY8ERYkWsREANPEknovK0,North,2026-01-04 10:15:00
61401561,215.9,2025-12-24T08:00:45.877,Shell Reddy Express Kippa-Ring,3421193,-27.229066920171583,153.08538009325412,4021,ChIJ8f6p1ZLlk2sRnnNJroUBrSc,North,2026-01-04 10:15:00
61401568,165.5,2025-12-21T20:48:37.637,Freedom Fuels Acacia Ridge,110,-27.595754,153.018264,4110,ChIJ1WHQBIFFkWsRw_s5Uix3MKQ,South,2026-01-04 10:15:00
61401569,215.9,2025-12-22T01:30:47.047,Shell Reddy Express Marsden,3421193,-27.680743,153.092073,4132,ChIJC6J1X8RGkWsRqVSK8sfNyMQ,South,2026-01-04 10:15:00
61401588,215.9,2026-01-03T19:24:00,7-Eleven Victoria Point,113,-27.584259,153.281142,4165,ChIJdWW_dBNmkWsRPWw-4FeS3_A,South,2026-01-04 10:15:00
61401590,163.5,2025-12-30T19:08:14.557,Caltex Wilston,2,-27.435847,153.014906,4051,ChIJvVHk7Z1ZkWsRnWbP_CvOIfk,North,2026-01-04 10:15:00
61401591,215.9,2025-12-28T14:00:28.123,Caltex Mango Hill,2,-27.226363,153.036006,4509,ChIJn-XMpGrlk2sRvu-jochOpww,North,2026-01-04 10:15:00
61401599,165.5,2025-12-27T05:24:36.3,Freedom Fuels Redbank Plains,110,-27.627512,152.874514,4301,ChIJOVRGoAVLkWsRGpZtJx_LmoM,South,2026-01-04 10:15:00
61401602,168.9,2026-01-03T20:28:00,7-Eleven Browns Plains,113,-27.664021,153.063245,4118,ChIJTSdU2yZHkWsRwz0T-8bF_lg,South,2026-01-04 10:15:00
61401603,215.9,2025-12-30T23:27:07,Caltex Chandler,2,-27.517268,153.183284,4155,ChIJlThKvZpdkWsRXiS5iXL4Ess,South,2026-01-04 10:15:00
61401605,165.9,2026-01-03T23:19:55.27,BP Annerley,5,-27.522428,153.025696,4103,ChIJs8Z3EZpakWsRqzBmthwf_TQ,South,2026-01-04 10:15:00
61401606,159.5,2025-12-28T21:00:50,Liberty Deception Bay,86,-27.205038,153.038413,4508,ChIJLRgtTfXvk2sRu59slGxQeqE,North,2026-01-04 10:15:00
61401613,161.7,2025-12-25T03:55:11.487,U-Go Cleveland,3421183,-27.53260236370942,153.26623918650816,4163,ChIJy9pXtMNmkWsR2xBUPrfJLQ4,South,2026-01-04 10:15:00
61401616,168.9,2026-01-03T20:30:00,7-Eleven Browns Plain,113,-27.664026,153.061551,4118,ChIJRYkbLGBGkWsRt7JEN-XzA0I,South,2026-01-04 10:15:00
61401620,159.9,2025-12-30T02:45:09.787,U-Go Loganholme,3421183,-27.663087497535884,153.17983496197124,4129,ChIJF6H8oBhCkWsRTE2H09riFgc,South,2026-01-04 10:15:00
61401621,159.9,2026-01-03T19:24:00,7-Eleven Woodridge,113,-27.620499,153.115408,4114,ChIJyzSeLIRDkWsR2NuI8v-geMs,South,2026-01-04 10:15:00
61401625,154.5,2026-01-03T19:55:20.17,Solo Rocklea,3421230,-27.54085919169559,153.0089030932541,4106,ChIJ00pRGARQkWsRsbGzaFqe3Mo,South,2026-01-04 10:15:00
61401641,215.9,2026-01-02T22:00:11.333,Ampol Foodary Carina,3421066,-27.495853,153.093435,4152,ChIJM5IQQexbkWsRiuV_Y50I5VA,South,2026-01-04 10:15:00
61401642,164.5,2026-01-02T21:49:42.953,Freedom Fuels Ningi,110,-27.065563,153.112506,4511,ChIJFzHL5F7rk2sR7JhCZoQgFKg,North,2026-01-04 10:15:00
61401643,215.9,2026-01-01T00:50:09.603,Ampol Foodary Samford,3421066,-27.373408,152.886201,4520,ChIJLVIVaqNVkWsRD_gbqxDTmsY,North,2026-01-04 10:15:00
61401658,163.9,2026-01-02T22:48:45,Indus Fuel Bribie island,12,-27.080478,153.173647,4507,ChIJ0wDGHsLqk2sRMaD2vfGoBgg,North,2026-01-04 10:15:00
61401667,159.9,2026-01-02T03:36:07,Raceview Fuels,12,-27.63233835956184,152.77083162577765,4305,ChIJY0r6Kqy1lmsRiVOJMGT-vcU,South,2026-01-04 10:15:00
61401670,169.9,2025-12-24T01:11:48.493,Ampol Redbank,3421066,-27.600518,152.870193,4301,ChIJG5ZVH4FMkWsRqAMd6CFxdBs,South,2026-01-04 10:15:00
61401676,213.9,2026-01-03T20:28:00,7-Eleven Gumdale,113,-27.491043,153.152854,4154,ChIJ-fsuYipckWsRpeoDNoUmpQ4,South,2026-01-04 10:15:00
61401680,163.7,2026-01-02T03:22:22,BP Grange,5,-27.426073,153.013055,4051,ChIJRWnJU9ZZkWsRKU2FhzsPXQM,North,2026-01-04 10:15:00
61401682,215.9,2026-01-02T22:25:09.823,Ampol Foodary Blacksoil,3421066,-27.579766,152.716439,4306,ChIJaT-lHrG2lmsRveR1k2-7DS8,South,2026-01-04 10:15:00
61401683,215.9,2026-01-01T01:05:11.297,Ampol Foodary Burpengary,3421066,-27.156263,152.977055,4505,ChIJvRoXoFHwk2sRHu0SoMvKp_A,North,2026-01-04 10:15:00
61401684,215.9,2025-12-27T19:26:14.567,Caltex Dutton Park,2,-27.498485,153.027857,4102,ChIJt9n6FWVakWsR7UycnGPqKnU,South,2026-01-04 10:15:00
61401685,215.9,2025-12-28T05:52:22.917,Caltex Graceville,2,-27.524837,152.980789,4075,ChIJs3l28zlQkWsRKD4z4seHaPs,South,2026-01-04 10:15:00
61401687,169.9,2025-12-29T01:15:04.633,NightOwl Caltex Enoggera,2,-27.425202,152.990017,4051,ChIJL12evxJXkWsRNARwTpS-VkY,North,2026-01-04 10:15:00
61401690,163.9,2025-12-21T22:18:42.94,BP Clontarf,5,-27.234738,153.087208,4019,ChIJR91AHOvlk2sRVc4TfVg8QE8,North,2026-01-04 10:15:00
61401691,169.5,2026-01-03T23:45:19.71,Freedom Fuels Brendale,110,-27.317652,152.987865,4500,ChIJM6JM_eb8k2sRKfkcXpdgnWg,North,2026-01-04 10:15:00
61401703,154.5,2026-01-03T20:01:36,Pearl Energy Willawong,3421139,-27.594515343499236,153.00412895337297,4110,ChIJuXdCjHlPkWsR1UkkJAlTaNI,South,2026-01-04 10:15:00
61401707,159.9,2025-12-24T02:35:23.65,Enhance Service Station & Tyre Plus Mechanic,2419037,-27.453052,153.011287,4059,ChIJSb37_FZXkWsRXtuJmTXYT28,North,2026-01-04 10:15:00
61401710,154.5,2025-12-30T23:02:12.263,Mega Fuels Rocklea,12,-27.546591,153.010459,4106,ChIJv6LmwgFQkWsRwVnwmU7Ey70,South,2026-01-04 10:15:00
61401711,159.5,2026-01-02T20:46:27,Liberty Yamanto,86,-27.662759,152.728866,4305,ChIJpVylOf7JlmsRaWxBcWnm3vk,South,2026-01-04 10:15:00
61401718,159.7,2026-01-02T07:47:59.067,Moorooka Servo,86,-27.545176,153.020003,4105,ChIJw-3q7KtakWsRJmLXUMKlN-w,South,2026-01-04 10:15:00
61401722,164.5,2025-12-31T01:05:30.193,Freedom Fuels Goodna,110,-27.606207,152.903825,4300,ChIJk8ItAAxMkWsRcFJVOLmgY00,South,2026-01-04 10:15:00
61401723,161.9,2025-12-30T09:40:10.753,Ampol Foodary Capalaba,3421066,-27.531502,153.197563,4157,ChIJI-6GsohdkWsRJIRZdezKGmQ,South,2026-01-04 10:15:00
61401725,159.9,2025-12-28T22:39:51.57,Caltex Wacol,2,-27.604324,152.932499,4076,ChIJoTaN1LpOkWsRYglnWnFRye0,South,2026-01-04 10:15:00
61401727,189.9,2025-12-14T23:12:53.367,BP Sandgate,5,-27.315559,153.061062,4017,ChIJc1WpkXXjk2sR8R_JhsUxqLo,North,2026-01-04 10:15:00
61401728,189.9,2026-01-02T07:29:16,BP Holland Park,5,-27.514233,153.054808,4121,ChIJB5yWvvhakWsRw895gfOmDQI,South,2026-01-04 10:15:00
61401729,174.9,2026-01-03T20:45:02.79,Freedom Fuels Victoria Point,110,-27.584835,153.301205,4165,ChIJqbeyOd5lkWsRe3a1PW_KsKU,South,2026-01-04 10:15:00
61401730,156.9,2025-12-31T03:38:59.233,Quill Petroleum,12,-27.455124731985503,153.0070409067459,4059,ChIJfYYpw1NXkWsRYAq5wdmIQGM,North,2026-01-04 10:15:00
61401733,215.9,2025-12-27T05:21:50.907,Caltex Narangba,2,-27.197201,152.984309,4504,GhIJjZduEoMyO8ARaJHtfH8fY0A,North,2026-01-04 10:15:00
61401734,159.9,2025-12-29T22:20:37.997,Shell Reddy Express Chatswood Road,3421193,-27.633636,153.139502,4127,ChIJH3trFGxDkWsRFp1-wlFAnJw,South,2026-01-04 10:15:00
61401737,154.5,2026-01-03T13:31:46,Pearl Energy Durack,3421139,-27.595968,152.987555,4077,ChIJnVcQAUxPkWsRy8l90HySsTo,South,2026-01-04 10:15:00
61401738,215.9,2026-01-01T00:50:09.603,Ampol Foodary Marsden,3421066,-27.679856,153.087847,4132,ChIJYV6wBsNGkWsRmjs_UyzoURw,South,2026-01-04 10:15:00
61401741,169.9,2025-12-24T02:39:22,BP Brown Plains,5,-27.662509,153.048088,4118,ChIJtdiP4-9HkWsR14JrXqa8SWY,South,2026-01-04 10:15:00
61401743,215.9,2025-12-22T22:50:39.16,Shell Reddy Express Kallangur,3421193,-27.249189,153.000822,4503,ChIJnz65piX7k2sRDgyhocaTR3E,North,2026-01-04 10:15:00
61401744,215.9,2026-01-02T21:55:12.55,Ampol Foodary Sumner Park,3421066,-27.560198,152.935835,4074,ChIJZem08m5OkWsRBQ2LmPIan7w,South,2026-01-04 10:15:00
61401745,163.9,2025-12-31T21:20:15.81,BP Lawnton,5,-27.281581,152.983155,4501,ChIJoYmSF6P9k2sRCFUUqeucfoY,North,2026-01-04 10:15:00
61401748,215.9,2026-01-02T22:15:09.627,Ampol Foodary Hyperdome,3421066,-27.659537,153.168904,4128,ChIJhb68OSVCkWsR1u9XA1TCmrY,South,2026-01-04 10:15:00
61401749,215.9,2025-12-28T22:03:53.987,BP Bowen Hills,5,-27.435613,153.041348,4006,ChIJCw_vyrlZkWsRIoG0Gh3wnY0,North,2026-01-04 10:15:00
61401753,215.9,2025-12-27T22:35:37.777,Shell Reddy Express Goodna,3421193,-27.600625,152.883996,4300,ChIJeWTM3-NLkWsRpl4pVDcJ0C0,South,2026-01-04 10:15:00
61401754,161.9,2026-01-03T22:30:13.413,Ampol Foodary Wishart,3421066,-27.548472,153.107989,4122,ChIJXdUMm19bkWsRdf6mfXdnFyY,South,2026-01-04 10:15:00
61401755,215.9,2025-12-27T18:30:10.973,Ampol Foodary Waterford West,3421066,-27.681393,153.114674,4133,ChIJb8doPTRBkWsRpnEk1T0J6WA,South,2026-01-04 10:15:00
61401756,169.9,2025-12-30T01:15:11.063,Ampol Foodary Brassall,3421066,-27.596301,152.745933,4305,ChIJ07-XFhe0lmsRARJfmz8ekDU,South,2026-01-04 10:15:00
61401758,215.9,2025-12-28T03:55:09.737,Ampol Foodary Kingston,3421066,-27.633736,153.119241,4114,ChIJd3EHKPJDkWsRkzfk_bO6SJA,South,2026-01-04 10:15:00
61401759,215.9,2026-01-01T03:35:31,BP Manly West,5,-27.467323,153.154015,4179,ChIJSeRSPfVekWsRXnf1wUjiyQ8,North,2026-01-04 10:15:00
61401761,215.9,2025-12-26T23:20:39.663,Shell Reddy Express Birkdale,3421193,-27.493146,153.216292,4159,ChIJE3b8dbBgkWsR33w0JreIuYg,South,2026-01-04 10:15:00
61401766,159.9,2026-01-04T00:00:30.237,BP Wacol Truck Stop,5,-27.593532,152.934594,4076,ChIJvXPOFpdOkWsRCiGQt608IYY,South,2026-01-04 10:15:00
61401768,215.9,2025-12-27T05:45:11.157,Ampol Foodary Churchill,3421066,-27.633441,152.756625,4305,ChIJ7Q3Q5re1lmsR1K2WZJMIKO0,South,2026-01-04 10:15:00
61401769,215.9,2026-01-03T22:30:44.757,Shell Reddy Express Albany Creek,3421193,-27.345888,152.964409,4035,ChIJa_QAlnL9k2sR36cWZd1wE44,North,2026-01-04 10:15:00
61401770,195.9,2026-01-03T04:35:06.647,NightOwl Shell Wakerley,20,-27.493179,153.168917,4154,ChIJ9S0vOL1fkWsRaDm6tKxeW4o,South,2026-01-04 10:15:00
61401772,215.9,2026-01-02T21:40:10.913,Ampol Foodary Slacks Creek,3421066,-27.640701,153.131201,4127,ChIJs3UrgOpDkWsRyMbskNUYUkk,South,2026-01-04 10:15:00
61401773,215.7,2026-01-02T00:15:05.84,United Loganlea,23,-27.667011,153.139313,4131,ChIJ-fwoDGRBkWsR94iijE7S64w,South,2026-01-04 10:15:00
61401774,155.5,2025-12-31T11:41:44,Pearl Energy Rocklea,3421139,-27.557625,153.015262,4106,ChIJ2aOqxVdFkWsRz0VTrS793X8,South,2026-01-04 10:15:00
61401775,215.9,2026-01-03T00:35:09.897,Ampol Foodary Bellbowrie,3421066,-27.562496,152.886875,4070,ChIJk-wF8rJNkWsRl2BbMREoAsQ,South,2026-01-04 10:15:00
61401777,158.5,2025-12-30T23:36:01.94,Liberty Karawatha,86,-27.617782,153.094057,4117,ChIJw69V_xJFkWsRewtg026GFNw,South,2026-01-04 10:15:00
61401778,163.9,2026-01-01T20:20:10.71,Ampol Foodary Camira,3421066,-27.634994,152.916347,4300,ChIJNRayRuFLkWsR0SXn-MLYJjI,South,2026-01-04 10:15:00
61401779,161.9,2026-01-01T23:15:44.403,Shell Reddy Express Cleveland,3421193,-27.535062,153.266974,4163,ChIJOUYkbcJmkWsREE8kgOoniu4,South,2026-01-04 10:15:00
61401780,215.9,2025-12-25T21:45:45.193,Shell Reddy Express Deception Bay,3421193,-27.190235,153.018421,4508,ChIJ9XJfN-Pvk2sRd1SayrCGhjs,North,2026-01-04 10:15:00
61401781,161.9,2026-01-01T23:35:13.023,Liberty Lawnton,86,-27.290068,152.984536,4501,ChIJTaNtRnf9k2sR4FtwuCe3rHM,North,2026-01-04 10:15:00
61401782,215.9,2026-01-02T23:45:10.96,Ampol Foodary Caboolture Travel Centre,3421066,-27.042111,152.975171,4510,ChIJswTzaufyk2sRNbloAmU-FdY,North,2026-01-04 10:15:00
61401856,169.9,2025-12-30T01:01:42.68,Elimbah Service Station and Takeaway,12,-27.007343,152.944651,4516,ChIJU_onA8qMk2sR1bVwd5rSuXE,North,2026-01-04 10:15:00
61401858,169.7,2026-01-03T21:25:08.19,United Caboolture,23,-27.079253,152.951795,4510,ChIJJcwfnLjzk2sRW9Xm1mo34SY,North,2026-01-04 10:15:00
61401861,169.9,2025-12-18T20:59:29.93,Jio Caboolture,12,-27.084568,152.958178,4510,ChIJ7x3X58jzk2sRqur-Hx1jiGE,North,2026-01-04 10:15:00
61401862,171.9,2025-12-18T20:15:10.28,Ampol Foodary Caboolture,3421066,-27.086965,152.980739,4510,ChIJe5aFPjjyk2sR-Y-r26k6yCI,North,2026-01-04 10:15:00
61401863,179.9,2026-01-01T23:30:12.55,NightOwl Shell Caboolture,20,-27.072802,153.025162,4510,ChIJJVCWEjftk2sRidWht-kr1J4,North,2026-01-04 10:15:00
61401866,215.9,2025-12-28T21:15:44.633,Shell Reddy Express Morayfield,3421193,-27.098137,152.94905576686477,4506,ChIJa7zMJt_zk2sRAodE4_h8QGk,North,2026-01-04 10:15:00
61401868,171.9,2026-01-03T19:24:00,7-Eleven Morayfield,113,-27.112363,152.950651,4506,ChIJaynHT2_xk2sRscfrAxzQEqU,North,2026-01-04 10:15:00
61401881,159.9,2025-12-27T04:30:12.66,Ampol Foodary Rochedale,3421066,-27.595176,153.121695,4123,ChIJkYlCfWhDkWsRwqlMmqOVBo4,South,2026-01-04 10:15:00
61401886,157.7,2026-01-03T20:50:50.89,Liberty Sunnybank Hills,86,-27.602084,153.056501,4109,ChIJZ6wtJKpFkWsRJa_7nUvOldo,South,2026-01-04 10:15:00
61401887,215.9,2026-01-03T00:25:10.33,Ampol Foodary Cleveland Shore St,3421066,-27.524198,153.253795,4163,ChIJte-outlmkWsRBfN_xOXxKd4,South,2026-01-04 10:15:00
61401888,159.9,2026-01-03T19:24:00,7-Eleven Richlands,113,-27.597824,152.949918,4077,ChIJ4RrnJupOkWsRWlnYwUv-O-w,South,2026-01-04 10:15:00
61401894,162.9,2026-01-02T19:10:25.813,Ampol Foodary Lawnton,3421066,-27.281231,152.982252,4501,ChIJvQkofp38k2sRCqxMD2VM9r4,North,2026-01-04 10:15:00
61401899,215.9,2026-01-04T00:00:00,EG Ampol Goodna,3421073,-27.628223,152.883713,4300,ChIJMSNwGJhLkWsRA1ttaz9uPm4,South,2026-01-04 10:15:00
61401905,159.9,2025-12-25T12:45:12.043,Ampol Foodary Richlands,3421066,-27.596746,152.949854,4077,ChIJdRbiLepOkWsREyefWCYXTWE,South,2026-01-04 10:15:00
61401906,159.9,2026-01-04T00:00:30.237,BP Express Eight Mile Plains,5,-27.575708,153.087955,4113,ChIJA3ClOrhEkWsRNR6yuVXuuHU,South,2026-01-04 10:15:00
61401907,162.7,2026-01-03T21:20:05.92,United Bald Hills,23,-27.317756,153.009186,4036,ChIJ587dds78k2sRNeBaT6o4IMA,North,2026-01-04 10:15:00
61401908,160.9,2026-01-04T00:00:00,EG Ampol Virginia,3421073,-27.383445,153.064113,4013,ChIJrSRInoNYkWsRpWhHDexFHx4,North,2026-01-04 10:15:00
61401910,215.9,2025-12-29T22:00:45.393,Shell Reddy Express Runcorn,3421193,-27.610975,153.067873,4113,ChIJi98J9lJEkWsR8r3C4sPGGdI,South,2026-01-04 10:15:00
61401911,215.9,2025-12-28T03:15:44.273,Shell Reddy Express Karalee,3421193,-27.572365,152.791976,4306,ChIJl9WaEW6zlmsRPrctAp6QZxs,South,2026-01-04 10:15:00
61401912,154.9,2026-01-02T22:25:10.933,Liberty Oxley,86,-27.570459356616315,152.9810493558197,4075,ChIJb37hdpVPkWsRFeQxPr7_XIY,South,2026-01-04 10:15:00
61401914,163.9,2026-01-03T21:18:00,7-Eleven Albany Creek,113,-27.363889718122927,153.01311577315525,4034,ChIJmYY4mVL9k2sR9gWkjVoRTh4,North,2026-01-04 10:15:00
61401915,159.9,2026-01-04T00:00:00,EG Ampol Mitchelton,3421073,-27.415386,152.977543,4053,ChIJiczCdgZXkWsRA_ZcZmNemhw,North,2026-01-04 10:15:00
61401916,155.5,2025-12-29T02:28:58,Pearl Energy Acacia Ridge,3421139,-27.580433143071236,153.02631481719666,4110,ChIJuZmYfW9FkWsR2CiEgkl3pNI,South,2026-01-04 10:15:00
61401917,167.5,2025-12-28T20:54:50.87,Freedom Fuels Indooroopilly,110,-27.499065138785195,152.9674647949676,4068,ChIJ-ahwtVRQkWsRvE3sctKOCws,South,2026-01-04 10:15:00
61401919,215.9,2026-01-01T01:20:09.823,Ampol Foodary Woodridge West,3421066,-27.642988,153.100369,4114,ChIJ520enQVEkWsRjYNDfekFjXo,South,2026-01-04 10:15:00
61401921,158.9,2025-12-24T10:14:39.093,Caltex Underwood,2,-27.597516,153.109135,4119,ChIJ-3Aqf2JDkWsRKGJgj04XS8Y,South,2026-01-04 10:15:00
61401922,215.9,2025-12-27T05:45:11.173,Ampol Foodary Caboolture,3421066,-27.085152,152.957808,4510,ChIJgSPKxcjzk2sRS8ss-tdLPOs,North,2026-01-04 10:15:00
61401923,215.9,2026-01-03T19:24:00,7-Eleven Manly West,113,-27.475413,153.165772,4179,ChIJcVuiaGZekWsRG9CvBTImwhU,South,2026-01-04 10:15:00
61401924,215.9,2026-01-03T00:20:11.327,Ampol Foodary Strathpine,3421066,-27.326024,152.979019,4500,ChIJ9ZcX0QL9k2sRH8UuhafEroE,North,2026-01-04 10:15:00
61401926,175.9,2026-01-03T21:27:56.723,Freedom Fuels Karana Downs,110,-27.546897,152.822363,4306,ChIJB5MUFNSylmsRY41ev3mvXtc,South,2026-01-04 10:15:00
61401928,215.9,2026-01-02T21:50:11.19,Ampol Foodary Mackenzie,3421066,-27.547407,153.128337,4156,ChIJj5aqSpRckWsR-nunPDF8IYA,South,2026-01-04 10:15:00
61401929,215.9,2026-01-02T22:45:43.443,Shell Reddy Express Belmont (Qld),3421193,-27.499187,153.126507,4153,ChIJSdrA1RBckWsRPvGYX4ruJ4g,South,2026-01-04 10:15:00
61401930,215.9,2026-01-03T19:24:00,7-Eleven Mackenzie,113,-27.545381,153.121763,4156,ChIJBWbybZdckWsR2mqx8nXIiFM,South,2026-01-04 10:15:00
61401931,209.9,2026-01-01T21:53:54.357,Metro Petroleum Hillcrest,57,-27.676512,153.024581,4118,ChIJg4mk6zNHkWsRJOtHBxmF110,South,2026-01-04 10:15:00
61401934,215.9,2026-01-02T01:48:54.39,Caltex Murrumba Downs,2,-27.264616,153.005048,4503,ChIJN3n6LUj7k2sRJf2bIdeLFxg,North,2026-01-04 10:15:00
61401938,161.7,2025-12-24T21:49:42,Metro Petroleum Capalaba,57,-27.521129,153.199215,4157,ChIJUxDXQ-ldkWsRZjgebiwyIPY,South,2026-01-04 10:15:00
61401939,164.9,2026-01-04T00:00:30.237,BP Express Goodna,5,-27.609654,152.902465,4300,ChIJ1cESPApMkWsR80sazDT-WQU,South,2026-01-04 10:15:00
61401941,215.9,2026-01-03T19:24:00,7-Eleven Wynnum,113,-27.446069,153.171941,4178,ChIJUwkw27NfkWsRrhl_eK6d3dk,North,2026-01-04 10:15:00
61401943,215.9,2026-01-04T00:00:00,EG Ampol Browns Plains West,3421073,-27.659403,153.028989,4118,ChIJlwzIzxdGkWsRUs1VDplZDMw,South,2026-01-04 10:15:00
61401945,163.9,2025-12-28T23:45:44.47,Shell Reddy Express Breakfast Creek,3421193,-27.446338,153.042061,4006,ChIJOadBjpVZkWsRLdmXiHeMHmo,North,2026-01-04 10:15:00
61401946,215.9,2025-12-18T23:20:37.247,Shell Reddy Express Marsden Park,3421193,-27.679062,153.118267,4133,ChIJw6n_Ms9BkWsRL15S2ya92gE,South,2026-01-04 10:15:00
61401951,161.9,2026-01-04T00:00:00,EG Ampol Mount Cotton,3421073,-27.561251,153.197803,4157,ChIJi93ILmFdkWsRvZHubYCX3yQ,South,2026-01-04 10:15:00
61401954,159.9,2025-12-29T11:55:12.267,Ampol Foodary Rothwell,3421066,-27.209295,153.042949,4022,ChIJN2EZvGHlk2sRrYpEpuTOWA8,North,2026-01-04 10:15:00
61401956,159.5,2026-01-03T02:16:43.937,Caltex Booval,2,-27.612973,152.798948,4304,ChIJ4T3D2wq1lmsRb1gqN1SdamM,South,2026-01-04 10:15:00
61401959,163.9,2025-12-28T23:45:44.47,Shell Reddy Express Windsor (Qld),3421193,-27.439346,153.030343,4030,ChIJHflOvMNZkWsRKlBneRh41_U,North,2026-01-04 10:15:00
61401964,159.5,2025-12-22T02:48:23.357,Freedom Fuels Eight Mile Plains,110,-27.578537,153.094318,4113,ChIJS4lz_7pEkWsREePkxYD1UjY,South,2026-01-04 10:15:00
61402086,215.9,2026-01-04T00:00:00,EG Ampol Slacks Creek,3421073,-27.640345,153.132893,4127,ChIJdZI-9FdDkWsRknpkxpNFYoU,South,2026-01-04 10:15:00
61402090,159.9,2026-01-03T19:24:00,7-Eleven Murarrie,113,-27.456902,153.105682,4172,ChIJ0zFLpjVZkWsRGXuo51VMa7o,North,2026-01-04 10:15:00
61402091,215.9,2026-01-03T19:24:00,7-Eleven Bray Park,113,-27.292016,152.954828,4500,ChIJDU3utWj8k2sRQPY7CxQMaH8,North,2026-01-04 10:15:00
61402092,215.9,2026-01-03T19:24:00,7-Eleven Birkdale,113,-27.508734,153.207099,4159,ChIJuwmfjrBgkWsRu8SGU0x_SB4,South,2026-01-04 10:15:00
61402093,215.9,2025-12-21T23:35:38.497,Shell Reddy Express Loganlea,3421193,-27.662597,153.140557,4131,ChIJi0_7XGJBkWsRdH2k351iC-s,South,2026-01-04 10:15:00
61402094,215.9,2026-01-04T00:00:00,EG Ampol Caboolture South - Market Plaza,3421073,-27.09453583645176,152.9511927288361,4510,ChIJPyu1Xm_xk2sR5VNDpWovf_c,North,2026-01-04 10:15:00
61402095,158.9,2026-01-01T23:15:44.403,Shell Reddy Express Deagon,3421193,-27.330699,153.047457,4017,ChIJNTOTBhvjk2sRFpke79ejUXE,North,2026-01-04 10:15:00
61402096,157.9,2026-01-02T05:40:10.29,Ampol Foodary Sunnybank,3421066,-27.584133,153.061878,4109,ChIJi3KW5uFEkWsR70SbPiBI-i4,South,2026-01-04 10:15:00
61402097,159.7,2026-01-02T23:10:07.037,United Virginia,23,-27.377199,153.062259,4014,ChIJq39cxy1GkWsROdT3jD0KF78,North,2026-01-04 10:15:00
61402098,215.9,2026-01-03T19:24:00,7-Eleven Heritage Park,113,-27.673109458819063,153.05285839123795,4118,ChIJR-o--FpGkWsR7Qq-lETpbdA,South,2026-01-04 10:15:00
61402099,215.9,2025-12-28T21:15:44.633,Shell Reddy Express Victoria Point,3421193,-27.596076,153.28593,4165,ChIJ51SgKgVmkWsRJAgwGHxlKhI,South,2026-01-04 10:15:00
61402101,215.9,2026-01-03T19:24:00,7-Eleven Pinelands Road,113,-27.591492,153.060381,4109,ChIJg51rvwJFkWsRfoyF8tNz9gY,South,2026-01-04 10:15:00
61402106,215.9,2026-01-04T00:00:00,EG Ampol Margate,3421073,-27.244479,153.109334,4019,ChIJR4Ewu9_lk2sRgRR8K58IOos,North,2026-01-04 10:15:00
61402107,164.9,2026-01-03T21:16:00,7-Eleven Carina,113,-27.487654,153.100211,4152,ChIJHZ4IVfpbkWsRI7BrWlqxAaA,South,2026-01-04 10:15:00
61402125,157.9,2026-01-04T00:00:00,EG Ampol Acacia Ridge,3421073,-27.575298,153.026169,4110,GhIJaJHtfD-TO8ARDAIrh9YgY0A,South,2026-01-04 10:15:00
61402127,215.9,2026-01-03T19:24:00,7-Eleven Murrumba Downs,113,-27.273405,153.015282,4503,ChIJxTnHMLPkk2sR33cMzHxLVvM,North,2026-01-04 10:15:00
61402131,159.9,2025-12-20T19:11:54,OOM Energy Kingston,12,-27.66240225882411,153.11811118650817,4114,ChIJKT_E1lBBkWsRlrK_MKdiNnI,South,2026-01-04 10:15:00
61402132,215.9,2026-01-01T04:17:28.327,BP Regents Park,5,-27.676907,153.031851,4118,ChIJJ6QIQzFGkWsRs4TO6416yEU,South,2026-01-04 10:15:00
61402202,157.9,2026-01-04T00:00:30.237,BP Archerfield,5,-27.565677,152.998169,4108,ChIJfUNKuexPkWsRaXWc6yJrprE,South,2026-01-04 10:15:00
61402204,215.9,2026-01-03T19:24:00,7-Eleven Boronia Heights,113,-27.678754,153.021806,4118,ChIJBYkJPjNGkWsR3MBPfIMS60g,South,2026-01-04 10:15:00
61402207,169.9,2025-12-31T08:01:11,BP Logandale,5,-27.670532,153.200911,4129,ChIJXeFD-gBCkWsRdq5MQ-9TqIc,South,2026-01-04 10:15:00
61402208,159.9,2026-01-03T19:24:00,7-Eleven Bracken Ridge,113,-27.330901,153.025787,4017,ChIJz2PxYijjk2sRQUyM4Zv_EpI,North,2026-01-04 10:15:00
61402209,215.9,2026-01-03T19:24:00,7-Eleven Compton Rd,113,-27.611024,153.062587,4109,ChIJLadIyFJEkWsRfcS4D3oLjb4,South,2026-01-04 10:15:00
61402210,161.9,2026-01-04T00:00:00,EG Ampol Mango Hill,3421073,-27.223195,153.037501,4509,ChIJvQTWyUHlk2sRGBg4teJOLZY,North,2026-01-04 10:15:00
61402211,215.9,2025-12-31T06:33:17,Caltex Wishart,2,-27.550748,153.106439,4122,ChIJB1813yxrbAER97wKLBV5z7w,South,2026-01-04 10:15:00
61402212,161.9,2026-01-04T00:00:00,EG Ampol Capalaba,3421073,-27.514796,153.181279,4157,ChIJhbsC--pdkWsR4yyOdLE8VfI,South,2026-01-04 10:15:00
61402213,159.9,2026-01-04T00:00:00,EG Ampol Forest Lake,3421073,-27.623694,152.969352,4078,ChIJAx377SpPkWsRjLLJR1-BJAo,South,2026-01-04 10:15:00
61402214,159.9,2026-01-04T00:00:00,EG Ampol Yamanto,3421073,-27.661644,152.739343,4305,GhIJFtnO91OpO8ARlUOLbKcXY0A,South,2026-01-04 10:15:00
61402215,215.9,2026-01-04T00:00:30.237,BP Narangba,5,-27.186077,152.934985,4504,ChIJV8YcSgj6k2sRyC97t1PiorA,North,2026-01-04 10:15:00
61402220,209.9,2026-01-04T00:00:30.237,BP Hillcrest,5,-27.674462,153.027669,4118,ChIJl3Bd6jFGkWsRhHE5raJf-sY,South,2026-01-04 10:15:00
61402223,215.9,2026-01-04T00:00:00,EG Ampol Burpengary,3421073,-27.154423,152.974743,4505,ChIJGb2w7h3xk2sRdwvgGeS7K48,North,2026-01-04 10:15:00
61402226,215.9,2026-01-04T01:10:00,S24 The Gap,2,-27.44460750531628,152.952606,4061,ChIJhd-nScxWkWsRS-tovW0IcBI,North,2026-01-04 10:15:00
61402227,164.9,2026-01-04T00:00:30.237,BP Connect Bribie Island,5,-27.063878064409337,153.1555978687172,4507,ChIJu4Yf1Cnrk2sRuA95RwEyM7c,North,2026-01-04 10:15:00
61402231,159.9,2026-01-03T19:24:00,7-Eleven Silkstone,113,-27.621151,152.787974,4304,ChIJeSrzYPq0lmsRp-aaHljFFmA,South,2026-01-04 10:15:00
61402234,215.9,2026-01-04T00:00:00,EG Ampol Booval,3421073,-27.616944,152.790529,4304,ChIJLbFk6_G0lmsR4_VQazxkHn4,South,2026-01-04 10:15:00
61402237,215.9,2026-01-04T00:00:00,EG Ampol Alexandra Hills,3421073,-27.525038,153.221226,4161,ChIJMSsz0UNnkWsRKLhn1EN0hR4,South,2026-01-04 10:15:00
61402245,161.9,2026-01-04T00:00:30.237,BP Capalaba South,5,-27.534996,153.206193,4157,ChIJt56tIn1nkWsRJJ_v-xZIbgY,South,2026-01-04 10:15:00
61402246,215.9,2026-01-04T00:00:00,EG Ampol Browns Plains,3421073,-27.663979,153.042319,4118,ChIJu8uEOkBGkWsRLxBZ1iObuCo,South,2026-01-04 10:15:00
61402247,166.9,2025-12-28T20:21:53.647,Metro Petroleum Marsden,57,-27.678204,153.082353,4132,ChIJRy1pp-lGkWsRu7DSSxupmyI,South,2026-01-04 10:15:00
61402254,215.9,2026-01-03T21:17:00,7-Eleven River Hills,113,-27.561775,152.921734,4074,ChIJYQ_eGHhOkWsRRGny32tRVAw,South,2026-01-04 10:15:00
61402262,215.9,2026-01-03T19:24:00,7-Eleven Bellbird Park,113,-27.645055,152.872371,4300,ChIJ534fjQBLkWsRpbeyTMyTKso,South,2026-01-04 10:15:00
61402338,168.9,2026-01-03T20:28:00,7-Eleven Brassall,113,-27.593686,152.745885,4305,ChIJxTgawRC0lmsRwtw69JCnGAU,South,2026-01-04 10:15:00
61402344,169.9,2025-12-31T00:00:11.937,Ampol Hemmant,3421066,-27.430687,153.133072,4174,ChIJuZaj5hdfkWsRn4tuvhv5_oU,North,2026-01-04 10:15:00
61402345,215.9,2026-01-04T00:00:30.237,BP Connect Caboolture South,5,-27.123314,152.978186,4510,ChIJNWT_8pnxk2sRWjmCfi0wsB4,North,2026-01-04 10:15:00
61402348,215.9,2026-01-04T00:00:30.237,BP Connect Caboolture North,5,-27.124577,152.976285,4510,ChIJ_3Glj8rBeGkRHTS3lFANznA,North,2026-01-04 10:15:00
61402350,159.9,2026-01-03T19:24:00,7-Eleven Coopers Plains,113,-27.563861,153.039813,4108,ChIJdXV98zdFkWsRYjL3RfrcUWU,South,2026-01-04 10:15:00
61402356,215.9,2026-01-04T00:00:00,EG Ampol Keperra,3421073,-27.417028,152.949281,4054,GhIJVOOlm8RqO8ARtch2vl8eY0A,North,2026-01-04 10:15:00
61402359,215.9,2026-01-04T00:00:00,EG Ampol Cannon Hill,3421073,-27.471036,153.104019,4170,ChIJ2Z0aLApZkWsRsx52yZYOrhs,South,2026-01-04 10:15:00
61402362,215.9,2026-01-04T00:00:00,EG Ampol Brookside,3421073,-27.409841,152.981438,4053,ChIJYXzN-6dXkWsR1RRvs8zVhvQ,North,2026-01-04 10:15:00
61402365,215.9,2026-01-03T19:24:00,7-Eleven Jindalee,113,-27.536357,152.948876,4074,ChIJJ0pXwSBOkWsRoIQvE0PN89g,South,2026-01-04 10:15:00
61402386,158.5,2026-01-02T04:50:48.293,Liberty Taigum,86,-27.349745,153.038003,4034,ChIJ5dUYHMLjk2sRCjKjhA01Qps,North,2026-01-04 10:15:00
61402388,158.5,2025-12-27T13:52:36,Pearl Energy Deagon,3421139,-27.328365,153.053801,4017,ChIJk8DdYg_jk2sRVt-m5onn-cY,North,2026-01-04 10:15:00
61402390,155.9,2026-01-04T00:00:00,EG Ampol Oxley,3421073,-27.572194,152.981702,4075,ChIJOx177rpPkWsRXwwzAIXG9oo,South,2026-01-04 10:15:00
61402391,215.9,2026-01-04T00:00:00,EG Ampol Cornubia,3421073,-27.672522,153.212491,4130,ChIJ1WhooflpkWsRMfEtxPmUxRE,South,2026-01-04 10:15:00
61402392,215.9,2026-01-04T00:00:00,EG Ampol Woodridge,3421073,-27.645186,153.118928,4114,ChIJ6fPma_BDkWsRY8i970Jjv88,South,2026-01-04 10:15:00
61402398,215.9,2026-01-04T00:00:00,EG Ampol Mount Ommaney,3421073,-27.549542,152.941043,4074,ChIJ4anxvRZOkWsREaUMM-BLhWg,South,2026-01-04 10:15:00
61402404,215.9,2026-01-03T19:24:00,7-Eleven Clontarf,113,-27.260601,153.080001,4019,ChIJOUpOgEvkk2sRcsQ1LYbCgOY,North,2026-01-04 10:15:00
61402405,159.9,2025-12-29T06:00:11.213,United Forestdale,23,-27.653823,152.995711,4118,ChIJ16pzmJVIkWsRoNLYZezBXgY,South,2026-01-04 10:15:00
61402406,159.9,2026-01-03T19:24:00,7-Eleven Flinders View,113,-27.653447,152.762956,4305,ChIJnU1GR5G1lmsRk98z_15ElUM,South,2026-01-04 10:15:00
61402436,159.9,2026-01-01T22:30:47.173,Coles Express Nudgee,111,-27.378158,153.093691,4014,ChIJmYO9ABHik2sRne2T9vnmwZ4,North,2026-01-04 10:15:00
61402464,205.9,2025-09-19T22:27:31.263,Point Lookout Roadhouse,12,-27.423023,153.516475,4183,ChIJmVti8EXUk2sRTq_hclW3TLA,North,2026-01-04 10:15:00
61402503,195.9,2025-12-14T23:06:38,BP Wamuran,5,-27.038915,152.858752,4512,ChIJq500e6f1k2sRITbyARnDu-4,North,2026-01-04 10:15:00
61402678,215.9,2025-12-31T06:23:31.93,Caltex Dayboro,2,-27.195955,152.825947,4521,ChIJiSrVkYcHlGsR2vdpOWk2SSA,North,2026-01-04 10:15:00
61402739,158.5,2025-12-30T23:36:20.597,Liberty Eight Mile Plains,86,-27.573428,153.078291,4113,ChIJ7cCT_9BFkWsRsXtbgQp8MQU,South,2026-01-04 10:15:00
61402762,215.9,2026-01-04T00:00:00,EG Ampol Karalee,3421073,-27.571241,152.799327,4306,ChIJ31rAoMRqbAERKr0oldZdUwc,South,2026-01-04 10:15:00
61402765,169.9,2025-12-18T00:48:39.33,Pacific Fuel Solutions Caboolture,3421162,-27.0876906682575,152.9803013852501,4510,ChIJFTMVMTjyk2sRs2PDfDyO_Vo,North,2026-01-04 10:15:00
61402813,215.9,2026-01-04T00:00:30.237,BP Connect North Lakes,5,-27.241863,153.023055,4509,ChIJHxMTJCnlk2sRQAkuxzkkNWw,North,2026-01-04 10:15:00
61402816,163.9,2026-01-04T00:00:00,EG Ampol Springfield,3421073,-27.678856,152.904123,4300,ChIJfZOj5uxLkWsRA32nPBY1mIk,South,2026-01-04 10:15:00
61402830,215.9,2026-01-04T00:00:00,EG Ampol Calamvale,3421073,-27.611892,153.054057,4116,ChIJRcROxrFFkWsRd2W5ULcwSbc,South,2026-01-04 10:15:00
61402834,159.9,2026-01-04T00:00:00,EG Ampol Enoggera,3421073,-27.42935179933878,152.98930968220904,4051,ChIJpyC0mhRXkWsRT0ygdZqjABA,North,2026-01-04 10:15:00
61402844,215.9,2025-12-21T05:45:48.11,Shell Reddy Express Mango Hill,3421193,-27.242734,153.023984,4509,ChIJN1CL4ijlk2sRjdaclMoRaCs,North,2026-01-04 10:15:00
61402845,158.9,2026-01-04T00:00:00,EG Ampol Underwood,3421073,-27.606312,153.109055,4119,ChIJ3TbZdX5DkWsRlxOA1Dsfdgc,South,2026-01-04 10:15:00
61402847,164.9,2025-12-30T23:00:11.513,Ampol Foodary Augustine Heights,3421066,-27.665500070157712,152.8910621898303,4300,ChIJ6cxa2UVKkWsRFK5TpNY92_4,South,2026-01-04 10:15:00
61402852,215.9,2026-01-03T19:24:00,7-Eleven Warner,113,-27.310281,152.962642,4500,ChIJ2TUiW1f8k2sRKibfnBYry80,North,2026-01-04 10:15:00
61402875,164.9,2026-01-03T19:24:00,7-Eleven Ningi,113,-27.062301,153.079179,4511,ChIJq6tH-MHsk2sRPK9igq_rXqY,North,2026-01-04 10:15:00
61402876,215.9,2026-01-04T00:00:00,EG Ampol Bowen Hills,3421073,-27.43935684389341,153.04003769940567,4006,ChIJm9DczrhZkWsRwaQndbZtiiI,North,2026-01-04 10:15:00
61402878,165.9,2025-12-28T22:11:27,BP Amberley,5,-27.658941,152.708684,4306,ChIJc-CKCeDJlmsR2QFiLPIPEoA,South,2026-01-04 10:15:00
61402880,215.9,2026-01-03T19:24:00,7-Eleven Raceview,113,-27.634495,152.774455,4305,ChIJmXGlOam1lmsRX75NDkzjqh8,South,2026-01-04 10:15:00
61402894,215.9,2026-01-02T20:32:30,Caltex Loganlea,2,-27.668834,153.125376,4131,ChIJ32QLtURBkWsRVsPjCCqPVfw,South,2026-01-04 10:15:00
61402897,215.9,2026-01-04T00:00:00,EG Ampol Kallangur,3421073,-27.250943,152.992977,4503,ChIJTxWqMz37k2sRLrjgp4W1SxU,North,2026-01-04 10:15:00
61402908,215.9,2025-12-28T04:00:11.38,Ampol Foodary North Lakes,3421066,-27.239449,153.009388,4509,ChIJYczKjtP6k2sRkXFSJd_sMYY,North,2026-01-04 10:15:00
61402913,169.9,2025-12-29T23:08:27.18,Pacific Fuel Solutions Blacksoil,3421162,-27.57635365510319,152.706416072422,4306,ChIJ950gg8m2lmsR0AWeinIyOhs,South,2026-01-04 10:15:00
61402918,174.5,2026-01-03T20:45:23.4,Freedom Fuels Loganholme,110,-27.689581,153.190423,4129,ChIJ7UgylOhBkWsRS5zwrEivnH8,South,2026-01-04 10:15:00
61477061,215.9,2026-01-04T00:00:00,EG Ampol Victoria Point,3421073,-27.587057,153.282657,4165,ChIJW3sofRFmkWsRtHTubpnA5Fc,South,2026-01-04 10:15:00
61477070,161.7,2026-01-02T23:05:05.907,United Springfield,23,-27.654489,152.917741,4300,ChIJ3bJfJR1LkWsRzcaaLLaOWd8,South,2026-01-04 10:15:00
61477071,215.9,2026-01-04T00:00:30.237,BP Slacks Creek,5,-27.655874,153.162979,4127,ChIJ73jYGy5CkWsRH2-5a6QKz0E,South,2026-01-04 10:15:00
61477074,159.9,2026-01-01T22:35:37.177,Coles Express Brisbane Airport,111,-27.39546625032258,153.10765420391354,4007,ChIJrZsdHqtYkWsRPXxFkIIQ57o,North,2026-01-04 10:15:00
61477081,215.9,2026-01-04T00:00:00,EG Ampol Joyner,3421073,-27.290927,152.953124,4500,ChIJvQkofp38k2sRJfeEJ8yGjOs,North,2026-01-04 10:15:00
61477083,215.9,2025-12-29T04:45:15.373,United Crestmead,23,-27.697253410613996,153.08220271135957,4132,ChIJL5IT1x5HkWsRvGLL-6Go3Cc,South,2026-01-04 10:15:00
61477091,215.9,2026-01-03T19:24:00,7-Eleven North Lakes,113,-27.220937,152.999794,4509,ChIJm3w7d8f6k2sRUmYP9LVuAb4,North,2026-01-04 10:15:00
61477097,205.9,2025-08-21T00:37:11.2,Amity Point General Dealers,5094,-27.398476,153.438513,4183,ChIJ0wzj6R_Xk2sRDjtwYX_zFkU,North,2026-01-04 10:15:00
61477099,171.9,2025-12-23T20:03:41.77,Astron Beachmere,114,-27.128704843124698,153.0516013868227,4510,ChIJ9ws9QHruk2sRCN53XdA4BI4,North,2026-01-04 10:15:00
61477100,169.9,2025-12-23T05:07:33.423,BP Foodworks Tivoli,5,-27.588832509233157,152.77196181410352,4305,ChIJBS84Z3m0lmsR2p6wmh7aTF0,South,2026-01-04 10:15:00
61477129,215.9,2026-01-04T00:00:00,EG Ampol Meadowbrook,3421073,-27.667831,153.138292,4131,GhIJGi_dJAarO8ARd76fGm8kY0A,South,2026-01-04 10:15:00
61477138,215.9,2026-01-03T19:24:00,7-Eleven Kingston South,113,-27.660149,153.117008,4114,ChIJu42u5lZBkWsRxZj9EUchAms,South,2026-01-04 10:15:00
61477140,215.9,2026-01-03T19:24:00,7-Eleven Deception Bay,113,-27.196842,153.015639,4508,ChIJbUxF4gHwk2sRNgvKwez-Nbc,North,2026-01-04 10:15:00
61477143,163.9,2026-01-03T21:22:00,7-Eleven Taigum,113,-27.342366,153.041502,4018,ChIJG5xCKuHik2sRv8X3cEFBZpo,North,2026-01-04 10:15:00
61477145,215.9,2026-01-01T22:30:47.173,Shell Reddy Express Springfield Orion,3421193,-27.676267,152.900674,4300,ChIJI3tzRBZKkWsR9s-bJIT2s9Q,South,2026-01-04 10:15:00
61477631,207.9,2025-10-11T21:34:54.373,Independent Borgy's Place,12,-27.499171,153.401798,4183,ChIJYd4rwtd8kWsRRMzbXMhqB4I,South,2026-01-04 10:15:00
61477643,215.9,2026-01-02T22:45:43.443,Shell Reddy Express Bellbird Park,3421193,-27.647183,152.872421,4300,ChIJe46pbABLkWsRm6lQ77YYcaM,South,2026-01-04 10:15:00
61477645,215.9,2026-01-04T00:00:30.237,BP Logan Motorway East,5,-27.640169,153.010137,4110,ChIJ2Z2C7qtIkWsRO7ZKdfI8mtA,South,2026-01-04 10:15:00
61477652,215.9,2025-12-28T22:04:12.533,Caltex Bundamba,2,-27.588524,152.821812,4304,ChIJBYp4vkSzlmsR0F8_GHMajVY,South,2026-01-04 10:15:00
61477665,159.9,2026-01-03T19:24:00,7-Eleven Heathwood,113,-27.630712,152.986492,4110,ChIJZyR1actIkWsRw_n2k2KG9NY,South,2026-01-04 10:15:00
61477669,161.9,2026-01-03T19:24:00,7-Eleven Virginia,113,-27.371366,153.062734,4014,ChIJBR95fWLik2sRuAAXs6RkTWs,North,2026-01-04 10:15:00
61477670,159.9,2025-12-30T00:50:09.723,Ampol Foodary Yamanto,3421066,-27.656816,152.746774,4305,ChIJ3_3XUfC1lmsRy4ZVjSPUzZU,South,2026-01-04 10:15:00
61477671,155.9,2025-12-30T23:02:36.64,Caltex Archerfield,2,-27.564733,153.023797,4108,ChIJ33BUCltFkWsR0v-tvwksWHU,South,2026-01-04 10:15:00
61477675,215.9,2026-01-03T19:24:00,7-Eleven Loganlea,113,-27.687281,153.137458,4131,ChIJs0e_GxRBkWsRCCE9bypq2AE,South,2026-01-04 10:15:00
61477685,215.9,2026-01-03T19:24:00,7-Eleven Dakabin,113,-27.232713,152.992111,4503,ChIJZ4Qli936k2sRXP8c0Nrf7zc,North,2026-01-04 10:15:00
61477687,215.9,2025-12-29T06:24:41,Caltex Caboolture East,2,-27.085727,152.986338,4510,ChIJaRAypUDyk2sRy1RoiW3mnoI,North,2026-01-04 10:15:00
61477691,155.5,2025-12-27T23:56:30.393,Liberty Annerley,86,-27.503935408699782,153.0348827811191,4103,ChIJDR5ALmFakWsRx_9DFeBzKto,South,2026-01-04 10:15:00
61477692,159.9,2026-01-01T23:15:44.403,Shell Reddy Express Moorooka,3421193,-27.531673,153.016922,4105,ChIJ-W30xKBakWsRWhhJyouRxA4,South,2026-01-04 10:15:00
61477694,166.9,2025-12-28T23:49:16.317,Caltex West Ipswich,2,-27.618121,152.750201,4305,ChIJk1U7BjS0lmsRzj6bzjr38w0,South,2026-01-04 10:15:00
61477695,215.9,2025-12-23T06:35:04.273,Caltex Rocklea,2,-27.537417,153.003541,4106,ChIJd1EUfRBQkWsR9cCNueQ4nwU,South,2026-01-04 10:15:00
61477696,161.9,2026-01-03T21:21:00,7-Eleven Cleveland,113,-27.524539,153.256024,4163,ChIJOfgIh9lmkWsRRHSnn4LvIzg,South,2026-01-04 10:15:00
61477701,215.9,2026-01-01T05:30:44.35,Shell Reddy Express Ipswich North,3421193,-27.603381,152.761975,4305,ChIJ58nb62m0lmsR1jaodoWe8KQ,South,2026-01-04 10:15:00
61477707,215.9,2025-12-28T23:11:31,Caltex Caboolture West,2,-27.076328,152.928023,4510,ChIJI0PVEvPzk2sRYoZLdIGilAY,North,2026-01-04 10:15:00
61477709,169.7,2026-01-03T22:55:05.397,United Brendale,23,-27.326447,152.974796,4500,ChIJI90TtgP9k2sRGmeO9BAaeWo,North,2026-01-04 10:15:00
61477716,215.9,2025-12-26T23:20:39.663,Shell Reddy Express Bremer,3421193,-27.620482,152.779606,4304,ChIJ809KE9-1lmsRscv6rvDm7zU,South,2026-01-04 10:15:00
61477718,159.9,2026-01-03T19:24:00,7-Eleven Tingalpa,113,-27.471719,153.110322,4173,ChIJF-ILaq1ekWsRESQ9yAl5a60,South,2026-01-04 10:15:00
61477720,169.9,2026-01-03T19:24:00,7-Eleven Salisbury,113,-27.544513,153.039614,4107,ChIJlbBZP8hakWsRcd1FwsbFGWM,South,2026-01-04 10:15:00
61477722,215.9,2026-01-04T00:00:00,EG Ampol Park Ridge,3421073,-27.697954,153.039827,4125,ChIJM0cY7bhHkWsRsiv1_ZDdgZs,South,2026-01-04 10:15:00
61477723,155.5,2025-12-29T03:10:07.51,United Coopers Plains,23,-27.569702,153.024658,4108,ChIJfSasGV1FkWsRhuQiaq1ZFsE,South,2026-01-04 10:15:00
61477731,159.9,2026-01-03T19:24:00,7-Eleven Willawong,113,-27.593842,153.003908,4110,ChIJtwY073lPkWsRjylJ2P4rFLQ,South,2026-01-04 10:15:00
61477733,215.9,2026-01-03T19:24:00,7-Eleven Caboolture North,113,-27.060554,152.957646,4510,ChIJ6wqKaajzk2sRvOMirlDcSaU,North,2026-01-04 10:15:00
61477737,215.9,2026-01-03T19:24:00,7-Eleven Burpengary,113,-27.153675,152.970824,4505,ChIJx-1NhFbwk2sRLC0tSEdnpeg,North,2026-01-04 10:15:00
61477738,168.9,2026-01-03T22:45:46.187,Shell Reddy Express Kedron,3421193,-27.402657,153.031179,4031,ChIJq6puNTxYkWsREnzPLznrbu0,North,2026-01-04 10:15:00
61477739,215.9,2025-12-28T04:20:37.173,Shell Reddy Express Booval,3421193,-27.613345,152.784396,4304,ChIJKU97mG61lmsRJ_Syo03KVzI,South,2026-01-04 10:15:00
61477740,215.9,2026-01-03T19:24:00,7-Eleven Griffin,113,-27.260491,153.024233,4503,ChIJ24d5Gc_kk2sR4PtgmvC96DU,North,2026-01-04 10:15:00
61477741,215.9,2026-01-03T19:24:00,7-Eleven North Lakes Central,113,-27.238573,153.008647,4509,ChIJ_U2boNb6k2sR18qXosB5lzw,North,2026-01-04 10:15:00
61477742,163.9,2025-12-31T22:55:09.863,Ampol Foodary Ripley,3421066,-27.657134,152.778673,4306,ChIJF1lLUkO1lmsR0aWXDx1tIcE,South,2026-01-04 10:15:00
61477749,215.9,2026-01-03T19:24:00,7-Eleven Caboolture,113,-27.077539,152.950377,4510,ChIJDwV-tbjzk2sRSo5U1kAJyvo,North,2026-01-04 10:15:00
61477751,215.9,2026-01-03T19:24:00,7-Eleven Tingalpa North,113,-27.467655,153.152472,4173,ChIJeXK5xvRekWsRVLcRivFevto,North,2026-01-04 10:15:00
61477752,215.9,2026-01-03T19:24:00,7-Eleven Logan Reserve,113,-27.696584,153.102784,4133,ChIJDWUaAtZGkWsRpMhh8kut7IQ,South,2026-01-04 10:15:00
61477753,155.5,2025-12-29T21:25:36.543,Liberty Acacia Ridge,86,-27.57773460925084,153.02584625750842,4110,ChIJQ1XhBmZFkWsR9wYC0oFZjlc,South,2026-01-04 10:15:00
61477754,215.9,2026-01-03T19:24:00,7-Eleven Redland Bay,113,-27.608486,153.289542,4165,ChIJ04PQCKlokWsR5US70BYVXA8,South,2026-01-04 10:15:00
61477755,159.9,2026-01-04T00:00:30.237,BP Coopers Plains,5,-27.567265,153.024317,4108,ChIJFSdem1xFkWsRJIqsCsH_KAA,South,2026-01-04 10:15:00
61477760,215.9,2026-01-03T19:24:00,7-Eleven Everton Hills,113,-27.391023,152.972139,4053,ChIJwzX3OLRXkWsRrnFC8XoVXCs,North,2026-01-04 10:15:00
61477762,159.9,2026-01-03T19:24:00,7-Eleven Gaythorne,113,-27.417095,152.982146,4051,ChIJX-mYKw9XkWsRVGZAP2sS2cg,North,2026-01-04 10:15:00
61477763,159.9,2026-01-01T23:15:44.403,Shell Reddy Express Alderley,3421193,-27.426788,153.001672,4051,ChIJofmRWDhXkWsRsQONyJHFDN4,North,2026-01-04 10:15:00
61477765,164.9,2026-01-03T01:05:11.63,Ampol Foodary Redbank Plains,3421066,-27.641024743458107,152.8483229398117,4301,ChIJLdtnNCBLkWsRAtm_6EoonFA,South,2026-01-04 10:15:00
61477767,215.9,2026-01-03T22:15:44.187,Shell Reddy Express Brendale,3421193,-27.328192,152.987104,4500,ChIJ4SnebC79k2sRPsoQr-1SZ4c,North,2026-01-04 10:15:00
61477775,215.9,2026-01-01T00:50:09.603,Ampol Foodary Narangba,3421066,-27.202741,153.010792,4504,ChIJxQFTHEL7k2sREo81Bt50jO8,North,2026-01-04 10:15:00
61477776,158.5,2025-12-30T02:02:17,Pearl Energy Woodridge,3421139,-27.61827792410671,153.1060272625656,4114,ChIJa0jvWyBFkWsRSNZqF6jD9uE,South,2026-01-04 10:15:00
61477778,155.5,2025-12-31T21:55:06.923,United Archerfield,23,-27.561096,153.010123,4108,ChIJYUoe4PZPkWsRkheo1Jiv2IE,South,2026-01-04 10:15:00
61477779,215.9,2026-01-03T19:24:00,7-Eleven West Ipswich,113,-27.621919,152.747585,4305,ChIJeZGxUiG1lmsR7L8U1XC-6Fc,South,2026-01-04 10:15:00
61477780,215.9,2026-01-03T19:24:00,7-Eleven Burpengary East,113,-27.139707,152.982665,4505,ChIJbdb8z3nxk2sRNKnKiMzep1A,North,2026-01-04 10:15:00
61477783,167.5,2025-12-20T21:46:53.037,Freedom Fuels Redland Bay Road,110,-27.529372,153.196826,4157,ChIJ49B3LPtdkWsR8ofQ9-nElhI,South,2026-01-04 10:15:00
61477786,215.9,2026-01-03T19:24:00,7-Eleven Kallangur,113,-27.251764,152.991435,4503,ChIJq_TeMoz7k2sRCoGMaJA4QpE,North,2026-01-04 10:15:00
61477787,168.9,2026-01-03T22:45:46.187,Shell Reddy Express Kedron Inbound,3421193,-27.397698,153.032006,4031,ChIJk2ivNCBZkWsR4s5A95EWL7M,North,2026-01-04 10:15:00
61477855,215.9,2026-01-03T19:24:00,7-Eleven Mango Hill,113,-27.243654,153.025408,4509,ChIJ8bdU1pnlk2sRcgIS21RHX7A,North,2026-01-04 10:15:00
61477856,161.9,2026-01-02T19:04:17.293,Freedom Fuels Geebung,110,-27.368481,153.048696,4034,ChIJvySnFlDjk2sRBrn7gpd_dKc,North,2026-01-04 10:15:00
61477877,163.9,2026-01-03T20:28:00,7-Eleven Springfield,113,-27.651963,152.921313,4300,ChIJA0ZTzqlJkWsRXAq9js5c4xE,South,2026-01-04 10:15:00
61477882,171.9,2026-01-03T22:36:55.777,Ampol Morayfield,3421066,-27.119833,152.955668,4506,ChIJ5SP_im3xk2sR7jpFeX48WRA,North,2026-01-04 10:15:00
61477883,159.9,2026-01-03T19:24:00,7-Eleven Rothwell,113,-27.211363,153.046688,4022,ChIJqVrLIgLlk2sRQRNYfR9EqxI,North,2026-01-04 10:15:00
61477885,163.9,2026-01-03T23:22:00,7-Eleven Strathpine Northbound,113,-27.308062,152.989949,4500,ChIJ0YHlEZT9k2sRTu2fo3MP35k,North,2026-01-04 10:15:00
61477886,176.5,2025-12-18T20:08:44.92,Freedom Fuels Kallangur,110,-27.254183,152.982414,4503,ChIJe5XRNO_7k2sRTl2JfpZ-H-4,North,2026-01-04 10:15:00
61477890,159.9,2026-01-03T19:24:00,7-Eleven Eight Mile Plains,113,-27.585578,153.103765,4113,ChIJo4kRRjNFkWsR1cBbA4ouALA,South,2026-01-04 10:15:00
61477897,215.9,2026-01-03T19:24:00,7-Eleven Hillcrest,113,-27.663668,153.034904,4118,ChIJf3ohF0pHkWsR9Ab-OWLMgX4,South,2026-01-04 10:15:00
61477928,215.9,2026-01-03T19:24:00,7-Eleven Caboolture East,113,-27.086517,152.965723,4510,ChIJv5aWQDfzk2sRZo40HKLTcdA,North,2026-01-04 10:15:00
61477934,215.9,2026-01-03T19:24:00,7-Eleven Keperra,113,-27.42016890675928,152.94846237168883,4054,ChIJDbPY4axXkWsRvzvUbSQAGUQ,North,2026-01-04 10:15:00
61477936,215.9,2026-01-01T01:05:11.297,Ampol Foodary Riverview,3421066,-27.589553,152.829909,4303,ChIJUSrdnO1NkWsRRFyYmMAgCVQ,South,2026-01-04 10:15:00
61477937,155.5,2025-12-24T01:30:12.707,United Woolloongabba,23,-27.487922,153.036159,4102,ChIJ-9QTGcJbkWsRNsepftQ7y5Q,South,2026-01-04 10:15:00
61477940,157.7,2026-01-02T05:00:13.69,United Sunnybank Hills,23,-27.590552,153.065192,4109,ChIJB1omJ-NEkWsRR5DuOXPNhOQ,South,2026-01-04 10:15:00
61477943,159.9,2026-01-03T19:24:00,7-Eleven Doolandella,113,-27.612414,152.987602,4077,ChIJWfWXHQlPkWsRJBDi-DyH0uE,South,2026-01-04 10:15:00
61477946,215.9,2026-01-01T00:50:09.603,Ampol Foodary Hendra,3421066,-27.410275,153.072089,4011,ChIJq43ahHNZkWsRZhs-5LJ52sI,North,2026-01-04 10:15:00
61477949,209.9,2026-01-01T22:01:47.517,Metro Petroleum Greenbank,57,-27.696955,153.013438,4124,ChIJpZbPnnVIkWsRkASHvBQsEKI,South,2026-01-04 10:15:00
61477953,215.9,2026-01-03T19:24:00,7-Eleven Bellmere,113,-27.088853,152.927838,4510,ChIJ4R_Cxvvzk2sRINxKbR1eB1A,North,2026-01-04 10:15:00
61477956,157.5,2025-12-29T01:20:52.01,Shell Tingalpa,20,-27.472766,153.114344,4173,ChIJowUU3a1ekWsRhj4x3S9JU_k,South,2026-01-04 10:15:00
61477960,215.9,2026-01-03T19:24:00,7-Eleven Park Ridge,113,-27.698996,153.040984,4125,ChIJt4g3AatHkWsR603jZJbVfdQ,South,2026-01-04 10:15:00
61477962,215.9,2026-01-03T19:24:00,7-Eleven Redland Bay South,113,-27.637203,153.306042,4165,ChIJ72YxQSdvkWsRy3NRXnj8-gs,South,2026-01-04 10:15:00
61477963,215.9,2026-01-01T00:55:10.37,Ampol Foodary Tingalpa,3421066,-27.474108,153.121802,4173,ChIJmQ7jQqVekWsRMFu4rvx7Gcs,South,2026-01-04 10:15:00
61477971,174.9,2026-01-03T22:10:01.043,Ampol Wacol,3421066,-27.593553,152.922853,4076,ChIJGUFmaltPkWsRk7M_79t3xNA,South,2026-01-04 10:15:00
61477972,165.5,2025-12-20T21:07:25.153,Freedom Fuels Darra South,110,-27.572239,152.960523,4076,ChIJS6xw-sdPkWsRN4vQOStzO4g,South,2026-01-04 10:15:00
61477974,215.9,2026-01-03T19:24:00,7-Eleven Regents Park,113,-27.688181,153.037662,4118,ChIJZz8B19RHkWsRH-nwF1IVHB0,South,2026-01-04 10:15:00
61477979,215.9,2026-01-03T19:24:00,7-Eleven Eden's Crossing,113,-27.668754,152.842579,4301,ChIJg6QdQ7lKkWsRTcW2s9FDWhI,South,2026-01-04 10:15:00
61477986,215.9,2026-01-02T22:10:10.36,Ampol Foodary Morningside,3421066,-27.456745,153.087078,4170,ChIJj7cCujtZkWsRA2-w7TDDKUI,North,2026-01-04 10:15:00
61478004,162.9,2025-12-31T01:35:11.727,Liberty Margate,86,-27.242988,153.107046,4019,ChIJV92B7Inlk2sRE0PuRi6Ug7s,North,2026-01-04 10:15:00
61478011,166.9,2025-12-28T20:45:05.24,United Berrinba,23,-27.676026,153.079144,4117,ChIJS5x8H-xGkWsR8JIUrzs2-vA,South,2026-01-04 10:15:00
61478018,164.9,2026-01-03T19:24:00,7-Eleven Morayfield East,113,-27.109139,152.967497,4506,ChIJZTJ6L4Pxk2sRgZ6juCebkcs,North,2026-01-04 10:15:00
61478027,167.5,2025-12-29T23:45:07.343,United Morayfield,23,-27.104792,152.947002,4506,ChIJmw33Habxk2sRjEWEaG8USMo,North,2026-01-04 10:15:00
61478030,215.9,2026-01-03T19:24:00,7-Eleven Eight Mile Plains Northbound,113,-27.573523,153.090669,4113,ChIJ__-vN7dEkWsRfvwuaU_0Pzc,South,2026-01-04 10:15:00
61478041,159.9,2026-01-03T19:24:00,7-Eleven  Bracken Ridge North,113,-27.309904,153.025512,4017,ChIJ8z06ncnjk2sRNnC2Q48FnfA,North,2026-01-04 10:15:00
61478046,159.5,2025-12-26T00:41:06,Pearl Energy Rothwell,3421139,-27.21651197626366,153.04596229926682,4022, ChIJB_bhY5Xlk2sRv3bzqtztHGw,North,2026-01-04 10:15:00
61478047,155.5,2025-12-23T04:57:34,Pearl Energy Moorooka,3421139,-27.52739717949918,153.02112599140165,4105,ChIJobGVuphakWsRLhggYW1eDMc,South,2026-01-04 10:15:00
61478057,215.9,2026-01-03T19:24:00,7-Eleven Chandler,113,-27.516123,153.181907,4155,ChIJd4dwJAtdkWsRbDOgbFunLas,South,2026-01-04 10:15:00
61478059,215.9,2026-01-04T00:00:00,EG Ampol Brendale,3421073,-27.315004,152.966679,4500,ChIJ783dEFb8k2sRO-yty92BdVY,North,2026-01-04 10:15:00
61478087,215.9,2025-12-22T06:29:20.903,Caltex Crestmead,2,-27.69378632229072,153.07724963194656,4132,ChIJTy-grx1HkWsRL-MD1uMIkxA,South,2026-01-04 10:15:00
61478089,161.9,2026-01-03T19:24:00,7-Eleven Brisbane East,113,-27.488400458163543,153.04863777560195,4169,ChIJqbQPRzhakWsRYLKCRO9TXEE,South,2026-01-04 10:15:00
61478093,164.9,2026-01-03T19:24:00,7-Eleven Sandstone Point,113,-27.071435266078836,153.13532772452643,4511,ChIJ4bNyoT_rk2sRNXobDaghZgY,North,2026-01-04 10:15:00
61478106,170.9,2026-01-03T23:22:00,7-Eleven Cornubia,113,-27.670202149976504,153.20282614329264,4130,ChIJ0V6HnwBCkWsRFreG8zVU-x8,South,2026-01-04 10:15:00
61478112,215.9,2026-01-04T00:00:11.453,Ampol Windsor,3421066,-27.436792733114075,153.02339601223372,4030,ChIJFyJ7fNxZkWsR5o9SEVcAmRw,North,2026-01-04 10:15:00
61478114,215.9,2026-01-03T19:24:00,7-Eleven Mount Gravatt,113,-27.53565350399373,153.07665807073778,4122,ChIJUdF3IhdbkWsRSELXnywRfLY,South,2026-01-04 10:15:00
61478193,161.9,2026-01-03T23:52:00,7-Eleven Northgate,113,-27.391817254810274,153.07109543650816,4013,ChIJwzkZfoNYkWsRYWS3r9_KQko,North,2026-01-04 10:15:00
61478198,159.7,2026-01-02T00:15:05.84,United Mitchelton,23,-27.41471648666694,152.97730429677327,4053,ChIJZ5qNbEFXkWsRxBdC2US00yE,North,2026-01-04 10:15:00
61478201,167.5,2025-12-29T23:16:53.747,Metro Caboolture South,57,-27.093302371841695,152.94949876197776,4510,ChIJrVP-fJnzk2sRKS-pjgG-88c,North,2026-01-04 10:15:00
61478213,157.5,2026-01-01T02:50:54.623,Caltex Willawong,2,-27.594301151904506,153.00589252347183,4110,ChIJNYxccXlPkWsRXWP_J4_ilaU,South,2026-01-04 10:15:00
61478219,168.9,2026-01-04T00:00:00,EG Ampol Caboolture South,3421073,-27.096278400080855,152.9488247396431,4510,ChIJhfGpvt7zk2sRuIDbH7F8lYc,North,2026-01-04 10:15:00
61478220,163.9,2026-01-04T00:00:00,EG Ampol Ripley South,3421073,-27.69132089938983,152.8031637374344,4306,ChIJrZPFLZbKlmsRIZba3moL7A0,South,2026-01-04 10:15:00
61478222,155.5,2025-12-29T20:36:03.453,Caltex Coopers Plains,2,-27.572149765742434,153.03519868684006,4108,ChIJ2-N0HQBFkWsRha3JWMqKWMM,South,2026-01-04 10:15:00
61478226,163.9,2025-12-29T23:19:34.013,BP Paradise Gardens,5,-27.566598115425766,153.24974251182522,4164,ChIJDVZ3x_lnkWsRS_CYk4N9fmc,South,2026-01-04 10:15:00
61478227,158.9,2026-01-02T00:05:04.21,United Slacks Creek,23,-27.625835034179666,153.11769409325404,4127,ChIJ0fpaTndDkWsRktFvjrPaBo8,South,2026-01-04 10:15:00
61478231,168.9,2026-01-03T20:32:00,7-Eleven Kedron,113,-27.39863917071317,153.03197252883606,4031,ChIJ4VlEDBZYkWsRCfEL4fG754g,North,2026-01-04 10:15:00
61478233,215.9,2026-01-03T19:24:00,7-Eleven Chuwar,113,-27.57247896542318,152.79030419172994,4306,ChIJ2Q1V5XGzlmsR0BlMXz0ab_A,South,2026-01-04 10:15:00
61478236,187.9,2025-12-23T21:50:05.037,NightOwl Shell Karawatha,20,-27.651243269301546,153.0758083748688,4117,ChIJT7q0TghHkWsRW0bpiQtTTM8,South,2026-01-04 10:15:00
61478246,188.9,2025-12-22T21:00:06.487,NightOwl Shell Dakabin,20,-27.225416496521763,152.9907472804582,4503,ChIJZUKOF_37k2sR8FINTADMwIg,North,2026-01-04 10:15:00
61478248,215.9,2026-01-04T00:09:00,OTR Swanbank,169,-27.675319041570603,152.83636513523064,4306,ChIJGWYknkEvkWsRyCxQAfhgwXs,South,2026-01-04 10:15:00
61478249,159.9,2025-12-26T00:45:56.31,Caltex Richlands,2,-27.59946027258888,152.9493657962952,4077,ChIJIxwoUQBPkWsRXHjOwtanaJ8,South,2026-01-04 10:15:00
61478257,172.9,2026-01-03T19:24:00,7-Eleven Ripley North,113,-27.672811401191908,152.7845945423279,4306,EjJCaW5uaWVzIFJkICYgUmlwbGV5IFJkLCBSaXBsZXkgUUxEIDQzMDYsIEF1c3RyYWxpYSJmImQKFAoSCTcdpwx-tZZrEdgWjvxIbPq3EhQKEgk3HacMfrWWaxHYFo78SGz6txoUChIJgaA-mH_KlmsRqoR9MxHrjY8aFAoSCZFO45HBypZrEe0hHqI-YizGIgoNO5SB7xW9IBFb,South,2026-01-04 10:15:00
61478283,164.9,2026-01-01T09:00:11.097,Ampol Foodary Morayfield East,3421066,-27.10930972378493,152.97310703367856,4506,ChIJr9KTN4Hxk2sRnjXUln8hPlA,North,2026-01-04 10:15:00
61478288,215.9,2026-01-03T21:38:00,7-Eleven Collingwood Park,113,-27.62425080880812,152.85782253032556,4301,ChIJL6J4OQ1LkWsRXDp6jcREYvA,South,2026-01-04 10:15:00
