site_id,name,suburb,price_cpl,fairness_score,rating,spatial_cluster,latitude,longitude,moran_p
61401328,BP Kedron,"Kedron, Gordon Park, Glen Kedron",167.9,17.01000000000002,‚ö†Ô∏è Expensive,üü¢ Cold Spot (Low-Low),-27.40208501541335,153.031880046627,0.002
61401687,NightOwl Caltex Enoggera,"Alderley, Newmarket, Wilston, The Grange, Gaythorne, Enoggera, Grange",169.9,19.01000000000002,‚ö†Ô∏è Expensive,Neutral,-27.425202,152.990017,0.094
61401427,Pacific Fuel Solutions Rocklea,"Rocklea Dc, Rocklea, Brisbane Market",154.5,3.6100000000000136,üåü SUPER VALUE,üü¢ Cold Spot (Low-Low),-27.558117,153.006258,0.001
61402913,Pacific Fuel Solutions Blacksoil,"Dundas, Peak Crossing, Fairney View, Wanora, Haigslea, Goolman, Moore, South Ripley, Muirlea, Karana Downs, Wivenhoe Pocket, Karrabin, Vernor, Benarkin, Lake Manchester, Fernvale, Amberley, Mount Binga, Lark Hill, Chuwar, Banks Creek, Ripley, Mount Stanley, Thagoona, Blacksoil, Blackbutt, Mount Crosby, Nukku, Split Yard Creek, Mount Marrow, Holts Hill, Bellhaven, Willowbank, Pine Mountain, Purga, Ironbark, Glamorgan Vale, White Rock, Teelah, Blackbutt South, Loamside, Forest Glade, Kholo, Wivenhoe, England Creek, West Amberley, Monsildale, Blackwall, Borallon, Colinton, Benarkin North, Cherry Creek, Googa Creek, Barellan Point, Deebing Heights, Blackbutt North, Washpool, Taromeo, Linville, Harlin, Karalee, Avoca Vale, Walloon, Swanbank",169.9,19.01000000000002,‚ö†Ô∏è Expensive,Neutral,-27.57635365510319,152.706416072422,0.499
61477753,Liberty Acacia Ridge,"Acacia Ridge, Acacia Ridge Bc, Acacia Ridge Dc, Heathwood Df, Willawong, Larapinta, Heathwood, Pallara",155.5,4.610000000000014,üåü SUPER VALUE,üü¢ Cold Spot (Low-Low),-27.57773460925084,153.02584625750842,0.001
61401916,Pearl Energy Acacia Ridge,"Acacia Ridge, Acacia Ridge Bc, Acacia Ridge Dc, Heathwood Df, Willawong, Larapinta, Heathwood, Pallara",155.5,4.610000000000014,üåü SUPER VALUE,üü¢ Cold Spot (Low-Low),-27.58043314307124,153.02631481719666,0.001
61401421,Freedom Fuels Inala,"Inala West, Inala East, Inala, Serviceton, Richlands Dc, Richlands Bc, Durack, Inala Heights, Doolandella, Richlands",159.9,9.01000000000002,‚ö™ Market Price,üü¢ Cold Spot (Low-Low),-27.577748,152.973748,0.001
61401258,BP Bracken Ridge,"Nashville, Shorncliffe, Brighton Eventide, Sandgate, Sandgate Dc, Brighton, Brighton Nathan Street, Deagon, Bracken Ridge",169.9,19.01000000000002,‚ö†Ô∏è Expensive,üü¢ Cold Spot (Low-Low),-27.330999,153.041854,0.001
61401218,Liberty Deception Bay,Deception Bay,159.5,8.610000000000014,‚ö™ Market Price,Neutral,-27.199148,153.032128,0.172
61401325,NightOwl Shell Kelvin Grove,"Kelvin Grove Dc, Kelvin Grove Bc, Ballymore, Red Hill, Normanby, Kelvin Grove, Ithaca",163.5,12.610000000000014,‚ö™ Market Price,üü¢ Cold Spot (Low-Low),-27.445435,153.008589,0.011
61401910,Shell Reddy Express Runcorn,"Fruitgrove, Runcorn, Eight Mile Plains",215.9,65.01000000000002,‚ö†Ô∏è Expensive,Neutral,-27.610975,153.067873,0.415
61477083,United Crestmead,"Marsden, Marsden Postal Depot, Crestmead Dc, Crestmead",215.9,65.01000000000002,‚ö†Ô∏è Expensive,Neutral,-27.697253410614,153.08220271135957,0.05
61401550,Caltex Rochedale,"Rochedale South, Priests Gully, Rochedale",159.7,8.810000000000002,‚ö™ Market Price,üü¢ Cold Spot (Low-Low),-27.580123,153.124691,0.018
61401554,Shell Reddy Express Holland Park,"Tarragindi, Mount Thompson, Holland Park West, Ekibin, Holland Park East, Wellers Hill, Holland Park",215.9,65.01000000000002,‚ö†Ô∏è Expensive,Neutral,-27.526712,153.055956,0.05
61478027,United Morayfield,"Moorina, Morayfield",167.5,16.610000000000014,‚ö†Ô∏è Expensive,Neutral,-27.104792,152.947002,0.143
61401393,Shell Reddy Express Milton,"Rosalie, Baroona, Paddington, Milton Bc, Milton",215.9,65.01000000000002,‚ö†Ô∏è Expensive,üü† Hot outlier (High-Low),-27.473913230061896,153.00392841104505,0.008
61401172,Shell Reddy Express Taringa,"St Lucia South, St Lucia, Ironside",215.9,65.01000000000002,‚ö†Ô∏è Expensive,Neutral,-27.491609,152.994039,0.109
61478201,Metro Caboolture South,"Moodlu, Bellmere, Caboolture, Meldale, Upper Caboolture, Caboolture South, Balingool, Donnybrook, Caboolture Bc, Rocksberg, Beachmere, Toorbul",167.5,16.610000000000014,‚ö†Ô∏è Expensive,Neutral,-27.09330237184169,152.94949876197776,0.202
61478222,Caltex Coopers Plains,"Archerfield, Archerfield Bc, Coopers Plains",155.5,4.610000000000014,üåü SUPER VALUE,üü¢ Cold Spot (Low-Low),-27.572149765742434,153.03519868684006,0.001
61401117,Liberty Highgate Hill,"Mater Hill, South Brisbane Bc, Mater Hospital, West End, South Brisbane, South Bank, Highgate Hill",215.9,65.01000000000002,‚ö†Ô∏è Expensive,üü† Hot outlier (High-Low),-27.483891,153.020309,0.016
61401329,Caltex Kedron,"Kedron, Gordon Park, Glen Kedron",169.9,19.01000000000002,‚ö†Ô∏è Expensive,üü¢ Cold Spot (Low-Low),-27.407241,153.032891,0.001
61401309,Caltex Everton Park,"Stafford Heights, Everton Hills, Mcdowall, Mitchelton, Stafford City, Stafford Dc, Oxford Park, Somerset Hills, Brookside Centre, Everton Park, Stafford Bc, Stafford",161.9,11.01000000000002,‚ö™ Market Price,üü¢ Cold Spot (Low-Low),-27.401257,152.986898,0.029
61401126,BP Milton,"Rosalie, Baroona, Paddington, Milton Bc, Milton",215.9,65.01000000000002,‚ö†Ô∏è Expensive,üü† Hot outlier (High-Low),-27.467628,153.007504,0.003
61477956,Shell Tingalpa,"Tingalpa Dc, Tingalpa, Tingalpa Bc",157.5,6.610000000000014,‚ö™ Market Price,Neutral,-27.472766,153.114344,0.088
61401954,Ampol Foodary Rothwell,Rothwell,159.9,9.01000000000002,‚ö™ Market Price,Neutral,-27.209295,153.042949,0.112
61401138,Shell Reddy Express Camp Hill,"Carina, Camp Hill, Whites Hill, Carina Heights, Carindale, Carina North",215.9,65.01000000000002,‚ö†Ô∏è Expensive,Neutral,-27.492781,153.082664,0.442
61401140,Caltex Morningside,"Seven Hills, Norman Park, Morningside, Colmslie, Cannon Hill",161.9,11.01000000000002,‚ö™ Market Price,Neutral,-27.46640548892771,153.07819476837022,0.455
61401734,Shell Reddy Express Chatswood Road,"Daisy Hill, Slacks Creek, Springwood, Springwood Bc, Chatswood Hills, Priestdale",159.9,9.01000000000002,‚ö™ Market Price,Neutral,-27.633636,153.139502,0.205
61401149,Shell Reddy Express Tingalpa,"Tingalpa Dc, Tingalpa, Tingalpa Bc",215.9,65.01000000000002,‚ö†Ô∏è Expensive,Neutral,-27.474597374792506,153.12096549570083,0.124
61402405,United Forestdale,"Brownsleigh, Forestdale, Heritage Park, Browns Plains Bc, Hillcrest, Regents Park, Browns Plains",159.9,9.01000000000002,‚ö™ Market Price,Neutral,-27.653823,152.995711,0.054
61401431,NightOwl BP Salisbury,"Salisbury, Salisbury East",169.9,19.01000000000002,‚ö†Ô∏è Expensive,üü¢ Cold Spot (Low-Low),-27.545888,153.038591,0.001
61478226,BP Paradise Gardens,"Pinklands, Thornlands",163.9,13.01000000000002,‚ö™ Market Price,Neutral,-27.56659811542577,153.24974251182522,0.322
61477687,Caltex Caboolture East,"Moodlu, Bellmere, Caboolture, Meldale, Upper Caboolture, Caboolture South, Balingool, Donnybrook, Caboolture Bc, Rocksberg, Beachmere, Toorbul",215.9,65.01000000000002,‚ö†Ô∏è Expensive,Neutral,-27.085727,152.986338,0.336
61477723,United Coopers Plains,"Archerfield, Archerfield Bc, Coopers Plains",155.5,4.610000000000014,üåü SUPER VALUE,üü¢ Cold Spot (Low-Low),-27.569702,153.024658,0.001
61401710,Mega Fuels Rocklea,"Rocklea Dc, Rocklea, Brisbane Market",154.5,3.6100000000000136,üåü SUPER VALUE,üü¢ Cold Spot (Low-Low),-27.546591,153.010459,0.001
61477776,Pearl Energy Woodridge,"Logan Central, Woodridge East, Trinder Park, Logan City Dc, Logan City Bc, Woodridge, Kingston",158.5,7.610000000000014,‚ö™ Market Price,Neutral,-27.61827792410671,153.1060272625656,0.436
61477671,Caltex Archerfield,"Archerfield, Archerfield Bc, Coopers Plains",155.9,5.010000000000019,‚ö™ Market Price,üü¢ Cold Spot (Low-Low),-27.564733,153.023797,0.001
61477670,Ampol Foodary Yamanto,"Coalfalls, Ipswich, West Ipswich, Eastern Heights, North Ipswich, Woodend, Newtown, North Tivoli, Leichhardt, Basin Pocket, Bremer, Raceview, Yamanto, Raymonds Hill, Brassall Heights, Churchill, Tivoli, One Mile, Limestone Ridges, Brassall, Flinders View, East Ipswich, Moores Pocket, Wulkuraka, Sadliers Crossing",159.9,9.01000000000002,‚ö™ Market Price,üü¢ Cold Spot (Low-Low),-27.656816,152.746774,0.008
61401723,Ampol Foodary Capalaba,"Capalaba West, Sheldon, Capalaba, Capalaba Dc, Capalaba Bc",161.9,11.01000000000002,‚ö™ Market Price,Neutral,-27.531502,153.197563,0.203
61401620,U-Go Loganholme,"Loganholme Dc, Logandale, Loganholme Bc, Loganholme",159.9,9.01000000000002,‚ö™ Market Price,Neutral,-27.663087497535884,153.17983496197124,0.055
61401777,Liberty Karawatha,"Berrinba, Karawatha",158.5,7.610000000000014,‚ö™ Market Price,Neutral,-27.617782,153.094057,0.432
61401756,Ampol Foodary Brassall,"Coalfalls, Ipswich, West Ipswich, Eastern Heights, North Ipswich, Woodend, Newtown, North Tivoli, Leichhardt, Basin Pocket, Bremer, Raceview, Yamanto, Raymonds Hill, Brassall Heights, Churchill, Tivoli, One Mile, Limestone Ridges, Brassall, Flinders View, East Ipswich, Moores Pocket, Wulkuraka, Sadliers Crossing",169.9,19.01000000000002,‚ö†Ô∏è Expensive,Neutral,-27.596301,152.745933,0.4
61401225,Metro Clontarf,"Scotts Point, Woody Point, Humpybong, Clontarf Dc, Clontarf, Margate, Margate Beach, Clontarf Beach",162.9,12.01000000000002,‚ö™ Market Price,Neutral,-27.241169,153.086872,0.109
61401590,Caltex Wilston,"Alderley, Newmarket, Wilston, The Grange, Gaythorne, Enoggera, Grange",163.5,12.610000000000014,‚ö™ Market Price,üü¢ Cold Spot (Low-Low),-27.435847,153.014906,0.031
61401856,Elimbah Service Station and Takeaway,Elimbah,169.9,19.01000000000002,‚ö†Ô∏è Expensive,üîµ Cold outlier (Low-High),-27.007343,152.944651,0.001
61402847,Ampol Foodary Augustine Heights,"Camira, Springfield, Opossum Creek, Bellbird Park, Goodna Dc, Gailes, Springfield Central, Carole Park, Springfield Lakes, Spring Mountain, Goodna East, Goodna, Augustine Heights, Brookwater",164.9,14.01000000000002,‚ö™ Market Price,Neutral,-27.665500070157712,152.8910621898303,0.264
61402739,Liberty Eight Mile Plains,"Fruitgrove, Runcorn, Eight Mile Plains",158.5,7.610000000000014,‚ö™ Market Price,Neutral,-27.573428,153.078291,0.366
61401603,Caltex Chandler,Chandler,215.9,65.01000000000002,‚ö†Ô∏è Expensive,Neutral,-27.517268,153.183284,0.234
61401136,Caltex Norman Park,"Seven Hills, Norman Park, Morningside, Colmslie, Cannon Hill",161.9,11.01000000000002,‚ö™ Market Price,Neutral,-27.483909,153.063748,0.418
61401492,Metro West Ipswich,"Coalfalls, Ipswich, West Ipswich, Eastern Heights, North Ipswich, Woodend, Newtown, North Tivoli, Leichhardt, Basin Pocket, Bremer, Raceview, Yamanto, Raymonds Hill, Brassall Heights, Churchill, Tivoli, One Mile, Limestone Ridges, Brassall, Flinders View, East Ipswich, Moores Pocket, Wulkuraka, Sadliers Crossing",158.9,8.01000000000002,‚ö™ Market Price,üü¢ Cold Spot (Low-Low),-27.619048,152.749764,0.03
61401450,Caltex Eight Mile Plains,"Fruitgrove, Runcorn, Eight Mile Plains",215.9,65.01000000000002,‚ö†Ô∏è Expensive,Neutral,-27.575212,153.091639,0.399
61401472,Caltex Stretton,"Calamvale, Drewvale, Stretton",215.9,65.01000000000002,‚ö†Ô∏è Expensive,Neutral,-27.61142680060479,153.0635548637543,0.178
61401485,BP Mt Cotton,"Mount Cotton, Redland Bay, Victoria Point West, Point Talburpin, Point Halloran, Victoria Point",169.9,19.01000000000002,‚ö†Ô∏è Expensive,Neutral,-27.637353,153.239623,0.284
61401440,Metro Petroleum Sunnybank,"Sunnybank, Robertson, Altandi, Macgregor, Sunnybank Hills, Sunnybank South, Banoon",157.5,6.610000000000014,‚ö™ Market Price,üü¢ Cold Spot (Low-Low),-27.57032397205679,153.055617,0.035
61401497,Pacific Petroleum Churchill,"Coalfalls, Ipswich, West Ipswich, Eastern Heights, North Ipswich, Woodend, Newtown, North Tivoli, Leichhardt, Basin Pocket, Bremer, Raceview, Yamanto, Raymonds Hill, Brassall Heights, Churchill, Tivoli, One Mile, Limestone Ridges, Brassall, Flinders View, East Ipswich, Moores Pocket, Wulkuraka, Sadliers Crossing",159.5,8.610000000000014,‚ö™ Market Price,Neutral,-27.64406360751769,152.75105032638933,0.066
61401505,United Yamanto,"Coalfalls, Ipswich, West Ipswich, Eastern Heights, North Ipswich, Woodend, Newtown, North Tivoli, Leichhardt, Basin Pocket, Bremer, Raceview, Yamanto, Raymonds Hill, Brassall Heights, Churchill, Tivoli, One Mile, Limestone Ridges, Brassall, Flinders View, East Ipswich, Moores Pocket, Wulkuraka, Sadliers Crossing",159.5,8.610000000000014,‚ö™ Market Price,üü¢ Cold Spot (Low-Low),-27.6552275199991,152.74757596772153,0.008
61401391,Ampol Foodary Toowong,"Toowong Bc, Mount Coot-Tha, Toowong, Stuartholme, Torwood, Toowong Dc, Auchenflower",175.9,25.01000000000002,‚ö†Ô∏è Expensive,Neutral,-27.478292616581157,152.98579629447744,0.39
61477742,Ampol Foodary Ripley,"Dundas, Peak Crossing, Fairney View, Wanora, Haigslea, Goolman, Moore, South Ripley, Muirlea, Karana Downs, Wivenhoe Pocket, Karrabin, Vernor, Benarkin, Lake Manchester, Fernvale, Amberley, Mount Binga, Lark Hill, Chuwar, Banks Creek, Ripley, Mount Stanley, Thagoona, Blacksoil, Blackbutt, Mount Crosby, Nukku, Split Yard Creek, Mount Marrow, Holts Hill, Bellhaven, Willowbank, Pine Mountain, Purga, Ironbark, Glamorgan Vale, White Rock, Teelah, Blackbutt South, Loamside, Forest Glade, Kholo, Wivenhoe, England Creek, West Amberley, Monsildale, Blackwall, Borallon, Colinton, Benarkin North, Cherry Creek, Googa Creek, Barellan Point, Deebing Heights, Blackbutt North, Washpool, Taromeo, Linville, Harlin, Karalee, Avoca Vale, Walloon, Swanbank",163.9,13.01000000000002,‚ö™ Market Price,üü¢ Cold Spot (Low-Low),-27.657134,152.778673,0.007
61401560,Caltex Kalinga,"Wooloowin, Lutwyche, Eildon Hill, Windsor, Kalinga",215.9,65.01000000000002,‚ö†Ô∏è Expensive,üü† Hot outlier (High-Low),-27.410487,153.047567,0.014
61401722,Freedom Fuels Goodna,"Camira, Springfield, Opossum Creek, Bellbird Park, Goodna Dc, Gailes, Springfield Central, Carole Park, Springfield Lakes, Spring Mountain, Goodna East, Goodna, Augustine Heights, Brookwater",164.5,13.610000000000014,‚ö™ Market Price,Neutral,-27.606207,152.903825,0.351
61402207,BP Logandale,"Loganholme Dc, Logandale, Loganholme Bc, Loganholme",169.9,19.01000000000002,‚ö†Ô∏è Expensive,Neutral,-27.670532,153.200911,0.208
61477778,United Archerfield,"Archerfield, Archerfield Bc, Coopers Plains",155.5,4.610000000000014,üåü SUPER VALUE,üü¢ Cold Spot (Low-Low),-27.561096,153.010123,0.001
61401730,Quill Petroleum,"Kelvin Grove Dc, Kelvin Grove Bc, Ballymore, Red Hill, Normanby, Kelvin Grove, Ithaca",156.9,6.010000000000019,‚ö™ Market Price,üü¢ Cold Spot (Low-Low),-27.455124731985503,153.0070409067459,0.014
61402678,Caltex Dayboro,"Dayboro, Mount Pleasant, Ocean View, Rush Creek, Laceys Creek, Campbells Pocket, King Scrub, Mount Mee",215.9,65.01000000000002,‚ö†Ô∏è Expensive,üü† Hot outlier (High-Low),-27.195955,152.825947,0.001
61401235,BP Boulevarde,"Scotts Point, Woody Point, Humpybong, Clontarf Dc, Clontarf, Margate, Margate Beach, Clontarf Beach",173.9,23.01000000000002,‚ö†Ô∏è Expensive,Neutral,-27.255871,153.094417,0.176
61401142,Ampol Foodary Colmslie,"Seven Hills, Norman Park, Morningside, Colmslie, Cannon Hill",160.9,10.01000000000002,‚ö™ Market Price,Neutral,-27.466503,153.079198,0.437
61402344,Ampol Hemmant,"Doboy, Hemmant",169.9,19.01000000000002,‚ö†Ô∏è Expensive,Neutral,-27.430687,153.133072,0.228
61401124,Ampol Foodary Woolloongabba,"Woolloongabba, Princess Alexandra Hospital, Buranda, Dutton Park",159.9,9.01000000000002,‚ö™ Market Price,Neutral,-27.490753,153.040153,0.237
61401774,Pearl Energy Rocklea,"Rocklea Dc, Rocklea, Brisbane Market",155.5,4.610000000000014,üåü SUPER VALUE,üü¢ Cold Spot (Low-Low),-27.557625,153.015262,0.001
61478004,Liberty Margate,"Scotts Point, Woody Point, Humpybong, Clontarf Dc, Clontarf, Margate, Margate Beach, Clontarf Beach",162.9,12.01000000000002,‚ö™ Market Price,Neutral,-27.242988,153.107046,0.104
61401288,Caltex Nundah,"Nundah, Wavell Heights, Wavell Heights North, Toombul",215.9,65.01000000000002,‚ö†Ô∏è Expensive,üü† Hot outlier (High-Low),-27.391946,153.058897,0.014
61401745,BP Lawnton,Lawnton,163.9,13.01000000000002,‚ö™ Market Price,üîµ Cold outlier (Low-High),-27.281581,152.983155,0.027
61402211,Caltex Wishart,"Mount Gravatt East, Upper Mount Gravatt, Mansfield, Mount Gravatt, Upper Mount Gravatt Bc, Mansfield Dc, Mansfield Bc, Wishart",215.9,65.01000000000002,‚ö†Ô∏è Expensive,Neutral,-27.550748,153.106439,0.165
61401206,U-Go Park Ridge,"Munruben, Park Ridge South, Park Ridge",164.9,14.01000000000002,‚ö™ Market Price,üîµ Cold outlier (Low-High),-27.696645,153.038101,0.004
61477763,Shell Reddy Express Alderley,"Alderley, Newmarket, Wilston, The Grange, Gaythorne, Enoggera, Grange",159.9,9.01000000000002,‚ö™ Market Price,üü¢ Cold Spot (Low-Low),-27.426788,153.001672,0.019
61401507,Shell Reddy Express Yamanto,"Coalfalls, Ipswich, West Ipswich, Eastern Heights, North Ipswich, Woodend, Newtown, North Tivoli, Leichhardt, Basin Pocket, Bremer, Raceview, Yamanto, Raymonds Hill, Brassall Heights, Churchill, Tivoli, One Mile, Limestone Ridges, Brassall, Flinders View, East Ipswich, Moores Pocket, Wulkuraka, Sadliers Crossing",161.9,11.01000000000002,‚ö™ Market Price,üü¢ Cold Spot (Low-Low),-27.660171,152.739296,0.008
61401473,Shell Reddy Express Woodridge,"Logan Central, Woodridge East, Trinder Park, Logan City Dc, Logan City Bc, Woodridge, Kingston",158.9,8.01000000000002,‚ö™ Market Price,Neutral,-27.624443,153.116876,0.49
61402132,BP Regents Park,"Brownsleigh, Forestdale, Heritage Park, Browns Plains Bc, Hillcrest, Regents Park, Browns Plains",215.9,65.01000000000002,‚ùå PRICE GOUGE,üî¥ Hot Spot (High-High),-27.676907,153.031851,0.012
61402095,Shell Reddy Express Deagon,"Nashville, Shorncliffe, Brighton Eventide, Sandgate, Sandgate Dc, Brighton, Brighton Nathan Street, Deagon, Bracken Ridge",158.9,8.01000000000002,‚ö™ Market Price,üü¢ Cold Spot (Low-Low),-27.330699,153.047457,0.001
61402436,Coles Express Nudgee,"Virginia Bc, Virginia, Banyo, Virginia Dc, Nudgee Beach, Nudgee",159.9,9.01000000000002,‚ö™ Market Price,üü¢ Cold Spot (Low-Low),-27.378158,153.093691,0.005
61401931,Metro Petroleum Hillcrest,"Brownsleigh, Forestdale, Heritage Park, Browns Plains Bc, Hillcrest, Regents Park, Browns Plains",209.9,59.01000000000002,‚ùå PRICE GOUGE,üî¥ Hot Spot (High-High),-27.676512,153.024581,0.01
61477775,Ampol Foodary Narangba,Narangba,215.9,65.01000000000002,‚ö†Ô∏è Expensive,Neutral,-27.202741,153.010792,0.258
61401537,Shell Reddy Express Virginia,"Virginia Bc, Virginia, Banyo, Virginia Dc, Nudgee Beach, Nudgee",161.9,11.01000000000002,‚ö™ Market Price,üü¢ Cold Spot (Low-Low),-27.369917,153.061735,0.001
61401535,Shell Reddy Express Calamvale,"Calamvale, Drewvale, Stretton",215.9,65.01000000000002,‚ùå PRICE GOUGE,üî¥ Hot Spot (High-High),-27.632655,153.047203,0.033
61477692,Shell Reddy Express Moorooka,"Tennyson, Clifton Hill, Moorvale, Moorooka, Yeerongpilly",159.9,9.01000000000002,‚ö™ Market Price,üü¢ Cold Spot (Low-Low),-27.531673,153.016922,0.001
61478283,Ampol Foodary Morayfield East,"Moorina, Morayfield",164.9,14.01000000000002,‚ö™ Market Price,Neutral,-27.10930972378493,152.97310703367856,0.067
61477074,Coles Express Brisbane Airport,"Whinstanes, Hamilton Central, Doomben, Brisbane Airport, Ascot, Hamilton",159.9,9.01000000000002,‚ö™ Market Price,Neutral,-27.39546625032258,153.10765420391354,0.088
61477145,Shell Reddy Express Springfield Orion,"Camira, Springfield, Opossum Creek, Bellbird Park, Goodna Dc, Gailes, Springfield Central, Carole Park, Springfield Lakes, Spring Mountain, Goodna East, Goodna, Augustine Heights, Brookwater",215.9,65.01000000000002,‚ö†Ô∏è Expensive,Neutral,-27.676267,152.900674,0.336
61401863,NightOwl Shell Caboolture,"Moodlu, Bellmere, Caboolture, Meldale, Upper Caboolture, Caboolture South, Balingool, Donnybrook, Caboolture Bc, Rocksberg, Beachmere, Toorbul",179.9,29.01000000000002,‚ö†Ô∏è Expensive,Neutral,-27.072802,153.025162,0.484
61401781,Liberty Lawnton,Lawnton,161.9,11.01000000000002,‚ö™ Market Price,Neutral,-27.290068,152.984536,0.094
61401779,Shell Reddy Express Cleveland,"Cleveland Dc, Cleveland",161.9,11.01000000000002,‚ö™ Market Price,Neutral,-27.535062,153.266974,0.44
61401778,Ampol Foodary Camira,"Camira, Springfield, Opossum Creek, Bellbird Park, Goodna Dc, Gailes, Springfield Central, Carole Park, Springfield Lakes, Spring Mountain, Goodna East, Goodna, Augustine Heights, Brookwater",163.9,13.01000000000002,‚ö™ Market Price,Neutral,-27.634994,152.916347,0.445
61401643,Ampol Foodary Samford,"Yugar, Enoggera Reservoir, Wights Mountain, Jollys Lookout, Closeburn, Kobble Creek, Mount Glorious, Mount Nebo, Mount Samson, Camp Mountain, Draper, Samford Valley, Samsonvale, Highvale, Samford Village, Samford, Armstrong Creek, Cedar Creek",215.9,65.01000000000002,‚ö†Ô∏è Expensive,üü† Hot outlier (High-Low),-27.373408,152.886201,0.001
61401683,Ampol Foodary Burpengary,"Burpengary Dc, Burpengary, Burpengary East",215.9,65.01000000000002,‚ö†Ô∏è Expensive,Neutral,-27.156263,152.977055,0.121
61477701,Shell Reddy Express Ipswich North,"Coalfalls, Ipswich, West Ipswich, Eastern Heights, North Ipswich, Woodend, Newtown, North Tivoli, Leichhardt, Basin Pocket, Bremer, Raceview, Yamanto, Raymonds Hill, Brassall Heights, Churchill, Tivoli, One Mile, Limestone Ridges, Brassall, Flinders View, East Ipswich, Moores Pocket, Wulkuraka, Sadliers Crossing",215.9,65.01000000000002,‚ö†Ô∏è Expensive,Neutral,-27.603381,152.761975,0.472
61401738,Ampol Foodary Marsden,"Marsden, Marsden Postal Depot, Crestmead Dc, Crestmead",215.9,65.01000000000002,‚ùå PRICE GOUGE,üî¥ Hot Spot (High-High),-27.679856,153.087847,0.001
61401919,Station 61401919,Unknown,215.9,65.01000000000002,‚ö†Ô∏è Expensive,Neutral,-27.642988,153.100369,0.282
61401759,BP Manly West,"Lota, Manly West, Manly",215.9,65.01000000000002,‚ö†Ô∏è Expensive,Neutral,-27.467323,153.154015,0.108
61401514,Ampol Foodary Waterford,"Chambers Flat, Logan Reserve, Waterford West, Waterford",215.9,65.01000000000002,‚ùå PRICE GOUGE,üî¥ Hot Spot (High-High),-27.691549,153.134431,0.001
61401426,Shell Reddy Express Granard Rd,"Rocklea Dc, Rocklea, Brisbane Market",155.9,5.010000000000019,‚ö™ Market Price,üü¢ Cold Spot (Low-Low),-27.558051,153.015628,0.001
61401382,BP Ashgrove (Waterworks Rd),"Ashgrove East, St Johns Wood, Ashgrove West, Dorrington, Ashgrove",169.9,19.01000000000002,‚ö†Ô∏è Expensive,Neutral,-27.446283,152.997578,0.061
61401280,Shell Reddy Express Geebung,"Carseldine, Aspley, Geebung, Zillmere, Boondall",163.9,13.01000000000002,‚ö™ Market Price,üü¢ Cold Spot (Low-Low),-27.374166,153.035974,0.001
61477963,Ampol Foodary Tingalpa,"Tingalpa Dc, Tingalpa, Tingalpa Bc",215.9,65.01000000000002,‚ö†Ô∏è Expensive,Neutral,-27.474108,153.121802,0.132
61401224,Ampol Foodary Kippa-Ring,Kippa-Ring,215.9,65.01000000000002,‚ö†Ô∏è Expensive,Neutral,-27.226826,153.084902,0.243
61401301,Ampol Foodary Arana Hills,"Grovely, Keperra, Arana Hills",215.9,65.01000000000002,‚ö†Ô∏è Expensive,Neutral,-27.396824,152.960709,0.324
61477949,Metro Petroleum Greenbank,"New Beith, Greenbank, Silverbark Ridge, Lyons, Boronia Heights",209.9,59.01000000000002,‚ùå PRICE GOUGE,üî¥ Hot Spot (High-High),-27.696955,153.013438,0.007
61401428,Shell Reddy Express Rocklea,"Rocklea Dc, Rocklea, Brisbane Market",215.9,65.01000000000002,‚ö†Ô∏è Expensive,üü† Hot outlier (High-Low),-27.560256,153.000988,0.001
61477946,Ampol Foodary Hendra,"Clayfield, Eagle Junction, Hendra",215.9,65.01000000000002,‚ö†Ô∏è Expensive,Neutral,-27.410275,153.072089,0.06
61401254,Pacific Petroleum Deagon,"Nashville, Shorncliffe, Brighton Eventide, Sandgate, Sandgate Dc, Brighton, Brighton Nathan Street, Deagon, Bracken Ridge",159.9,9.01000000000002,‚ö™ Market Price,üü¢ Cold Spot (Low-Low),-27.325029,153.059461,0.001
61401170,Shell Reddy Express Chapel Hill,"Pullenvale, Pinjarra Hills, Lone Pine, Brookfield, Kenmore Dc, Kenmore East, Fig Tree Pocket, Upper Brookfield, Chapel Hill, Kenmore, Kenmore Hills",215.9,65.01000000000002,‚ö†Ô∏è Expensive,Neutral,-27.504769592318205,152.96077843320464,0.236
61401448,Shell Reddy Express Kessels Rd,"Mount Gravatt East, Upper Mount Gravatt, Mansfield, Mount Gravatt, Upper Mount Gravatt Bc, Mansfield Dc, Mansfield Bc, Wishart",215.9,65.01000000000002,‚ö†Ô∏è Expensive,Neutral,-27.561152,153.078726,0.247
61477936,Ampol Foodary Riverview,"Riverview, New Chum, Dinmore",215.9,65.01000000000002,‚ö†Ô∏è Expensive,Neutral,-27.589553,152.829909,0.051
61478213,Caltex Willawong,"Acacia Ridge, Acacia Ridge Bc, Acacia Ridge Dc, Heathwood Df, Willawong, Larapinta, Heathwood, Pallara",157.5,6.610000000000014,‚ö™ Market Price,üü¢ Cold Spot (Low-Low),-27.594301151904503,153.00589252347183,0.001
61401773,United Loganlea,"Loganlea, Meadowbrook",215.7,64.81,‚ùå PRICE GOUGE,üî¥ Hot Spot (High-High),-27.667011,153.139313,0.005
61401772,Ampol Foodary Slacks Creek,"Daisy Hill, Slacks Creek, Springwood, Springwood Bc, Chatswood Hills, Priestdale",215.9,65.01000000000002,‚ö†Ô∏è Expensive,Neutral,-27.640701,153.131201,0.196
61401348,U-Go Lutwyche,"Wooloowin, Lutwyche, Eildon Hill, Windsor, Kalinga",159.7,8.810000000000002,‚ö™ Market Price,Neutral,-27.425953,153.032041,0.145
61401344,Caltex Grange,"Alderley, Newmarket, Wilston, The Grange, Gaythorne, Enoggera, Grange",163.7,12.810000000000002,‚ö™ Market Price,üü¢ Cold Spot (Low-Low),-27.426624,153.017032,0.014
61401748,Ampol Foodary Hyperdome,"Logan Hyperdome Bc, Kimberley Park, Shailer Park, Tanah Merah",215.9,65.01000000000002,‚ùå PRICE GOUGE,üî¥ Hot Spot (High-High),-27.659537,153.168904,0.015
61401744,Ampol Foodary Sumner Park,"Sumner Park Bc, Westlake, Mount Ommaney, Jamboree Heights, Sumner, Riverhills, Jindalee, Middle Park",215.9,65.01000000000002,‚ö†Ô∏è Expensive,Neutral,-27.560198,152.935835,0.366
61401711,Liberty Yamanto,"Coalfalls, Ipswich, West Ipswich, Eastern Heights, North Ipswich, Woodend, Newtown, North Tivoli, Leichhardt, Basin Pocket, Bremer, Raceview, Yamanto, Raymonds Hill, Brassall Heights, Churchill, Tivoli, One Mile, Limestone Ridges, Brassall, Flinders View, East Ipswich, Moores Pocket, Wulkuraka, Sadliers Crossing",159.5,8.610000000000014,‚ö™ Market Price,üü¢ Cold Spot (Low-Low),-27.662759,152.728866,0.012
61401718,Moorooka Servo,"Tennyson, Clifton Hill, Moorvale, Moorooka, Yeerongpilly",159.7,8.810000000000002,‚ö™ Market Price,üü¢ Cold Spot (Low-Low),-27.545176,153.020003,0.001
61477986,Ampol Foodary Morningside,"Seven Hills, Norman Park, Morningside, Colmslie, Cannon Hill",215.9,65.01000000000002,‚ö†Ô∏è Expensive,Neutral,-27.456745,153.087078,0.499
61401343,Liberty Grange,"Alderley, Newmarket, Wilston, The Grange, Gaythorne, Enoggera, Grange",159.7,8.810000000000002,‚ö™ Market Price,üü¢ Cold Spot (Low-Low),-27.424641,153.014052,0.005
61401728,BP Holland Park,"Tarragindi, Mount Thompson, Holland Park West, Ekibin, Holland Park East, Wellers Hill, Holland Park",189.9,39.01000000000002,‚ö†Ô∏è Expensive,Neutral,-27.514233,153.054808,0.268
61401462,Ampol Foodary Goodna,"Camira, Springfield, Opossum Creek, Bellbird Park, Goodna Dc, Gailes, Springfield Central, Carole Park, Springfield Lakes, Spring Mountain, Goodna East, Goodna, Augustine Heights, Brookwater",215.9,65.01000000000002,‚ö†Ô∏è Expensive,Neutral,-27.608598,152.897931,0.445
61401292,Ampol Foodary West Chermside,"Chermside South, Craigslea, Chermside Bc, Chermside Centre, Chermside, Chermside West",215.9,65.01000000000002,‚ö†Ô∏è Expensive,üü† Hot outlier (High-Low),-27.380227,153.022597,0.001
61401252,U-Go Bracken Ridge,"Nashville, Shorncliffe, Brighton Eventide, Sandgate, Sandgate Dc, Brighton, Brighton Nathan Street, Deagon, Bracken Ridge",158.9,8.01000000000002,‚ö™ Market Price,üü¢ Cold Spot (Low-Low),-27.319382,153.040903,0.004
61401782,Ampol Foodary Caboolture Travel Centre,"Moodlu, Bellmere, Caboolture, Meldale, Upper Caboolture, Caboolture South, Balingool, Donnybrook, Caboolture Bc, Rocksberg, Beachmere, Toorbul",215.9,65.01000000000002,‚ö†Ô∏è Expensive,Neutral,-27.042111,152.975171,0.101
61401128,Shell Reddy Express Balmoral,"Hawthorne, Balmoral, Galloways Hill, Bulimba",215.9,65.01000000000002,‚ö†Ô∏è Expensive,Neutral,-27.452187,153.062044,0.357
61402097,United Virginia,"Virginia Bc, Virginia, Banyo, Virginia Dc, Nudgee Beach, Nudgee",159.7,8.810000000000002,‚ö™ Market Price,üü¢ Cold Spot (Low-Low),-27.377199,153.062259,0.001
61402096,Ampol Foodary Sunnybank,"Sunnybank, Robertson, Altandi, Macgregor, Sunnybank Hills, Sunnybank South, Banoon",157.9,7.010000000000019,‚ö™ Market Price,Neutral,-27.584133,153.061878,0.064
61401155,Ampol Foodary Carindale,"Carina, Camp Hill, Whites Hill, Carina Heights, Carindale, Carina North",215.9,65.01000000000002,‚ö†Ô∏è Expensive,Neutral,-27.505555,153.099646,0.217
61402386,Liberty Taigum,"Carseldine, Aspley, Geebung, Zillmere, Boondall",158.5,7.610000000000014,‚ö™ Market Price,üü¢ Cold Spot (Low-Low),-27.349745,153.038003,0.001
61478227,United Slacks Creek,"Daisy Hill, Slacks Creek, Springwood, Springwood Bc, Chatswood Hills, Priestdale",158.9,8.01000000000002,‚ö™ Market Price,Neutral,-27.625835034179666,153.11769409325404,0.497
61401180,United Sherwood,"Corinda, Oxley, Graceville East, Graceville, Sherwood",154.7,3.8100000000000023,üåü SUPER VALUE,üü¢ Cold Spot (Low-Low),-27.532831,152.983247,0.043
61478198,United Mitchelton,"Stafford Heights, Everton Hills, Mcdowall, Mitchelton, Stafford City, Stafford Dc, Oxford Park, Somerset Hills, Brookside Centre, Everton Park, Stafford Bc, Stafford",159.7,8.810000000000002,‚ö™ Market Price,Neutral,-27.41471648666694,152.97730429677327,0.316
61401934,Caltex Murrumba Downs,"Kurwongbah, Kallangur, Griffin, Whiteside, Dakabin, Murrumba Downs, Dohles Rocks",215.9,65.01000000000002,‚ö†Ô∏è Expensive,Neutral,-27.264616,153.005048,0.128
61401929,Shell Reddy Express Belmont (Qld),"Belmont Heights, Belmont",215.9,65.01000000000002,‚ùå PRICE GOUGE,üî¥ Hot Spot (High-High),-27.499187,153.126507,0.012
61401928,Ampol Foodary Mackenzie,"Mackenzie, Burbank",215.9,65.01000000000002,‚ö†Ô∏è Expensive,Neutral,-27.547407,153.128337,0.386
61402894,Caltex Loganlea,"Loganlea, Meadowbrook",215.9,65.01000000000002,‚ùå PRICE GOUGE,üî¥ Hot Spot (High-High),-27.668834,153.125376,0.007
61477070,United Springfield,"Camira, Springfield, Opossum Creek, Bellbird Park, Goodna Dc, Gailes, Springfield Central, Carole Park, Springfield Lakes, Spring Mountain, Goodna East, Goodna, Augustine Heights, Brookwater",161.7,10.810000000000002,‚ö™ Market Price,Neutral,-27.654489,152.917741,0.267
61401238,Red Dog Petroleum,"Kurwongbah, Kallangur, Griffin, Whiteside, Dakabin, Murrumba Downs, Dohles Rocks",179.9,29.01000000000002,‚ö†Ô∏è Expensive,üîµ Cold outlier (Low-High),-27.254478,152.982078,0.005
61401894,Ampol Foodary Lawnton,Lawnton,162.9,12.01000000000002,‚ö™ Market Price,üîµ Cold outlier (Low-High),-27.281231,152.982252,0.043
61477643,Shell Reddy Express Bellbird Park,"Camira, Springfield, Opossum Creek, Bellbird Park, Goodna Dc, Gailes, Springfield Central, Carole Park, Springfield Lakes, Spring Mountain, Goodna East, Goodna, Augustine Heights, Brookwater",215.9,65.01000000000002,‚ö†Ô∏è Expensive,Neutral,-27.647183,152.872421,0.264
61477940,United Sunnybank Hills,"Sunnybank, Robertson, Altandi, Macgregor, Sunnybank Hills, Sunnybank South, Banoon",157.7,6.810000000000002,‚ö™ Market Price,Neutral,-27.590552,153.065192,0.052
61401272,Shell Reddy Express Stafford Heights,"Stafford Heights, Everton Hills, Mcdowall, Mitchelton, Stafford City, Stafford Dc, Oxford Park, Somerset Hills, Brookside Centre, Everton Park, Stafford Bc, Stafford",215.9,65.01000000000002,‚ö†Ô∏è Expensive,üü† Hot outlier (High-Low),-27.391747,153.011652,0.001
61401682,Ampol Foodary Blacksoil,"Dundas, Peak Crossing, Fairney View, Wanora, Haigslea, Goolman, Moore, South Ripley, Muirlea, Karana Downs, Wivenhoe Pocket, Karrabin, Vernor, Benarkin, Lake Manchester, Fernvale, Amberley, Mount Binga, Lark Hill, Chuwar, Banks Creek, Ripley, Mount Stanley, Thagoona, Blacksoil, Blackbutt, Mount Crosby, Nukku, Split Yard Creek, Mount Marrow, Holts Hill, Bellhaven, Willowbank, Pine Mountain, Purga, Ironbark, Glamorgan Vale, White Rock, Teelah, Blackbutt South, Loamside, Forest Glade, Kholo, Wivenhoe, England Creek, West Amberley, Monsildale, Blackwall, Borallon, Colinton, Benarkin North, Cherry Creek, Googa Creek, Barellan Point, Deebing Heights, Blackbutt North, Washpool, Taromeo, Linville, Harlin, Karalee, Avoca Vale, Walloon, Swanbank",215.9,65.01000000000002,‚ö†Ô∏è Expensive,Neutral,-27.579766,152.716439,0.127
61401912,Liberty Oxley,"Corinda, Oxley, Graceville East, Graceville, Sherwood",154.9,4.010000000000019,üåü SUPER VALUE,üü¢ Cold Spot (Low-Low),-27.570459356616315,152.9810493558197,0.001
61401417,BP Oxley,"Corinda, Oxley, Graceville East, Graceville, Sherwood",169.9,19.01000000000002,‚ö†Ô∏è Expensive,üü¢ Cold Spot (Low-Low),-27.553377,152.979052,0.001
61401667,Raceview Fuels,"Coalfalls, Ipswich, West Ipswich, Eastern Heights, North Ipswich, Woodend, Newtown, North Tivoli, Leichhardt, Basin Pocket, Bremer, Raceview, Yamanto, Raymonds Hill, Brassall Heights, Churchill, Tivoli, One Mile, Limestone Ridges, Brassall, Flinders View, East Ipswich, Moores Pocket, Wulkuraka, Sadliers Crossing",159.9,9.01000000000002,‚ö™ Market Price,üü¢ Cold Spot (Low-Low),-27.63233835956184,152.77083162577765,0.037
61477856,Freedom Fuels Geebung,"Carseldine, Aspley, Geebung, Zillmere, Boondall",161.9,11.01000000000002,‚ö™ Market Price,üü¢ Cold Spot (Low-Low),-27.368481,153.048696,0.001
61401680,BP Grange,"Alderley, Newmarket, Wilston, The Grange, Gaythorne, Enoggera, Grange",163.7,12.810000000000002,‚ö™ Market Price,üü¢ Cold Spot (Low-Low),-27.426073,153.013055,0.006
61401658,Indus Fuel Bribie island,"Woorim, Welsby, White Patch, Bribie Island North, Bribie Island Dc, Banksia Beach, Bribie Island, Bellara, Bongaree",163.9,13.01000000000002,‚ö™ Market Price,Neutral,-27.080478,153.173647,0.192
61401642,Freedom Fuels Ningi,"Sandstone Point, Godwin Beach, Ningi",164.5,13.610000000000014,‚ö™ Market Price,Neutral,-27.065563,153.112506,0.105
61401641,Ampol Foodary Carina,"Carina, Camp Hill, Whites Hill, Carina Heights, Carindale, Carina North",215.9,65.01000000000002,‚ö†Ô∏è Expensive,Neutral,-27.495853,153.093435,0.303
61401541,Ampol Foodary Hamilton,"Whinstanes, Hamilton Central, Doomben, Brisbane Airport, Ascot, Hamilton",215.9,65.01000000000002,‚ö†Ô∏è Expensive,Neutral,-27.438408,153.066889,0.383
61401365,BP Lindum,"Wynnum Central, Lindum, Port Of Brisbane, Wynnum Plaza, Wynnum West, Wynnum, Wynnum North, Lytton",189.9,39.01000000000002,‚ö†Ô∏è Expensive,Neutral,-27.443116,153.143691,0.065
61401359,Ampol Eagle Farm,"Eagle Farm Bc, Eagle Farm",215.9,65.01000000000002,‚ö†Ô∏è Expensive,Neutral,-27.434674,153.079056,0.324
61401480,Shell Reddy Express Daisy Hill,"Daisy Hill, Slacks Creek, Springwood, Springwood Bc, Chatswood Hills, Priestdale",215.9,65.01000000000002,‚ö†Ô∏è Expensive,Neutral,-27.644857,153.153469,0.086
61401555,Caltex Woodridge,"Logan Central, Woodridge East, Trinder Park, Logan City Dc, Logan City Bc, Woodridge, Kingston",158.9,8.01000000000002,‚ö™ Market Price,Neutral,-27.627909,153.117731,0.499
61478193,7-Eleven Northgate,"Northgate Mc, Northgate",161.9,11.01000000000002,‚ö™ Market Price,üü¢ Cold Spot (Low-Low),-27.391817254810277,153.07109543650816,0.022
61477877,7-Eleven Springfield,"Camira, Springfield, Opossum Creek, Bellbird Park, Goodna Dc, Gailes, Springfield Central, Carole Park, Springfield Lakes, Spring Mountain, Goodna East, Goodna, Augustine Heights, Brookwater",163.9,13.01000000000002,‚ö™ Market Price,Neutral,-27.651963,152.921313,0.498
61402852,7-Eleven Warner,"Bray Park, Strathpine, Clear Mountain, Warner, Brendale Dc, Joyner, Brendale Bc, Strathpine City, Strathpine Centre, Cashmere, Brendale",215.9,65.01000000000002,‚ö†Ô∏è Expensive,Neutral,-27.310281,152.962642,0.248
61477760,7-Eleven Everton Hills,"Stafford Heights, Everton Hills, Mcdowall, Mitchelton, Stafford City, Stafford Dc, Oxford Park, Somerset Hills, Brookside Centre, Everton Park, Stafford Bc, Stafford",215.9,65.01000000000002,‚ö†Ô∏è Expensive,Neutral,-27.391023,152.972139,0.473
61402875,7-Eleven Ningi,"Sandstone Point, Godwin Beach, Ningi",164.9,14.01000000000002,‚ö™ Market Price,Neutral,-27.062301,153.079179,0.372
61477882,Ampol Morayfield,"Moorina, Morayfield",171.9,21.01000000000002,‚ö†Ô∏è Expensive,Neutral,-27.119833,152.955668,0.079
61402209,7-Eleven Compton Rd,"Sunnybank, Robertson, Altandi, Macgregor, Sunnybank Hills, Sunnybank South, Banoon",215.9,65.01000000000002,‚ö†Ô∏è Expensive,Neutral,-27.611024,153.062587,0.14
61402880,7-Eleven Raceview,"Coalfalls, Ipswich, West Ipswich, Eastern Heights, North Ipswich, Woodend, Newtown, North Tivoli, Leichhardt, Basin Pocket, Bremer, Raceview, Yamanto, Raymonds Hill, Brassall Heights, Churchill, Tivoli, One Mile, Limestone Ridges, Brassall, Flinders View, East Ipswich, Moores Pocket, Wulkuraka, Sadliers Crossing",215.9,65.01000000000002,‚ö†Ô∏è Expensive,üü† Hot outlier (High-Low),-27.634495,152.774455,0.011
61478114,7-Eleven Mount Gravatt,"Mount Gravatt East, Upper Mount Gravatt, Mansfield, Mount Gravatt, Upper Mount Gravatt Bc, Mansfield Dc, Mansfield Bc, Wishart",215.9,65.01000000000002,‚ö†Ô∏è Expensive,Neutral,-27.53565350399373,153.07665807073778,0.172
61478106,7-Eleven Cornubia,"Carbrook, Cornubia",170.9,20.01000000000002,‚ö†Ô∏è Expensive,Neutral,-27.670202149976504,153.20282614329264,0.339
61478093,7-Eleven Sandstone Point,"Sandstone Point, Godwin Beach, Ningi",164.9,14.01000000000002,‚ö™ Market Price,Neutral,-27.07143526607884,153.13532772452643,0.101
61402918,Freedom Fuels Loganholme,"Loganholme Dc, Logandale, Loganholme Bc, Loganholme",174.5,23.610000000000014,‚ö†Ô∏è Expensive,Neutral,-27.689581,153.190423,0.231
61477754,7-Eleven Redland Bay,"Mount Cotton, Redland Bay, Victoria Point West, Point Talburpin, Point Halloran, Victoria Point",215.9,65.01000000000002,‚ùå PRICE GOUGE,üî¥ Hot Spot (High-High),-27.608486,153.289542,0.028
61477762,7-Eleven Gaythorne,"Alderley, Newmarket, Wilston, The Grange, Gaythorne, Enoggera, Grange",159.9,9.01000000000002,‚ö™ Market Price,Neutral,-27.417095,152.982146,0.32
61477709,United Brendale,"Bray Park, Strathpine, Clear Mountain, Warner, Brendale Dc, Joyner, Brendale Bc, Strathpine City, Strathpine Centre, Cashmere, Brendale",169.7,18.810000000000002,‚ö†Ô∏è Expensive,Neutral,-27.326447,152.974796,0.108
61477787,Shell Reddy Express Kedron Inbound,"Kedron, Gordon Park, Glen Kedron",168.9,18.01000000000002,‚ö†Ô∏è Expensive,üü¢ Cold Spot (Low-Low),-27.397698,153.032006,0.001
61478257,7-Eleven Ripley North,"Dundas, Peak Crossing, Fairney View, Wanora, Haigslea, Goolman, Moore, South Ripley, Muirlea, Karana Downs, Wivenhoe Pocket, Karrabin, Vernor, Benarkin, Lake Manchester, Fernvale, Amberley, Mount Binga, Lark Hill, Chuwar, Banks Creek, Ripley, Mount Stanley, Thagoona, Blacksoil, Blackbutt, Mount Crosby, Nukku, Split Yard Creek, Mount Marrow, Holts Hill, Bellhaven, Willowbank, Pine Mountain, Purga, Ironbark, Glamorgan Vale, White Rock, Teelah, Blackbutt South, Loamside, Forest Glade, Kholo, Wivenhoe, England Creek, West Amberley, Monsildale, Blackwall, Borallon, Colinton, Benarkin North, Cherry Creek, Googa Creek, Barellan Point, Deebing Heights, Blackbutt North, Washpool, Taromeo, Linville, Harlin, Karalee, Avoca Vale, Walloon, Swanbank",172.9,22.01000000000002,‚ö†Ô∏è Expensive,üü¢ Cold Spot (Low-Low),-27.672811401191908,152.7845945423279,0.005
61478233,7-Eleven Chuwar,"Dundas, Peak Crossing, Fairney View, Wanora, Haigslea, Goolman, Moore, South Ripley, Muirlea, Karana Downs, Wivenhoe Pocket, Karrabin, Vernor, Benarkin, Lake Manchester, Fernvale, Amberley, Mount Binga, Lark Hill, Chuwar, Banks Creek, Ripley, Mount Stanley, Thagoona, Blacksoil, Blackbutt, Mount Crosby, Nukku, Split Yard Creek, Mount Marrow, Holts Hill, Bellhaven, Willowbank, Pine Mountain, Purga, Ironbark, Glamorgan Vale, White Rock, Teelah, Blackbutt South, Loamside, Forest Glade, Kholo, Wivenhoe, England Creek, West Amberley, Monsildale, Blackwall, Borallon, Colinton, Benarkin North, Cherry Creek, Googa Creek, Barellan Point, Deebing Heights, Blackbutt North, Washpool, Taromeo, Linville, Harlin, Karalee, Avoca Vale, Walloon, Swanbank",215.9,65.01000000000002,‚ö†Ô∏è Expensive,Neutral,-27.57247896542318,152.79030419172994,0.161
61402231,7-Eleven Silkstone,"North Booval, Ebbw Vale, Booval Fair, Silkstone, Booval Dc, Bundamba, Blackstone, Booval, Booval Bc",159.9,9.01000000000002,‚ö™ Market Price,Neutral,-27.621151,152.787974,0.473
61402254,7-Eleven River Hills,"Sumner Park Bc, Westlake, Mount Ommaney, Jamboree Heights, Sumner, Riverhills, Jindalee, Middle Park",215.9,65.01000000000002,‚ö†Ô∏è Expensive,Neutral,-27.561775,152.921734,0.382
61402262,7-Eleven Bellbird Park,"Camira, Springfield, Opossum Creek, Bellbird Park, Goodna Dc, Gailes, Springfield Central, Carole Park, Springfield Lakes, Spring Mountain, Goodna East, Goodna, Augustine Heights, Brookwater",215.9,65.01000000000002,‚ö†Ô∏è Expensive,Neutral,-27.645055,152.872371,0.355
61402338,7-Eleven Brassall,"Coalfalls, Ipswich, West Ipswich, Eastern Heights, North Ipswich, Woodend, Newtown, North Tivoli, Leichhardt, Basin Pocket, Bremer, Raceview, Yamanto, Raymonds Hill, Brassall Heights, Churchill, Tivoli, One Mile, Limestone Ridges, Brassall, Flinders View, East Ipswich, Moores Pocket, Wulkuraka, Sadliers Crossing",168.9,18.01000000000002,‚ö†Ô∏è Expensive,Neutral,-27.593686,152.745885,0.182
61477780,7-Eleven Burpengary East,"Burpengary Dc, Burpengary, Burpengary East",215.9,65.01000000000002,‚ö†Ô∏è Expensive,Neutral,-27.139707,152.982665,0.327
61402350,7-Eleven Coopers Plains,"Archerfield, Archerfield Bc, Coopers Plains",159.9,9.01000000000002,‚ö™ Market Price,üü¢ Cold Spot (Low-Low),-27.563861,153.039813,0.001
61477786,7-Eleven Kallangur,"Kurwongbah, Kallangur, Griffin, Whiteside, Dakabin, Murrumba Downs, Dohles Rocks",215.9,65.01000000000002,‚ùå PRICE GOUGE,üî¥ Hot Spot (High-High),-27.251764,152.991435,0.023
61477767,Shell Reddy Express Brendale,"Bray Park, Strathpine, Clear Mountain, Warner, Brendale Dc, Joyner, Brendale Bc, Strathpine City, Strathpine Centre, Cashmere, Brendale",215.9,65.01000000000002,‚ö†Ô∏è Expensive,Neutral,-27.328192,152.987104,0.42
61477765,Ampol Foodary Redbank Plains,"Collingwood Park, Redbank, Redbank Plains, Greenwood Village",164.9,14.01000000000002,‚ö™ Market Price,üîµ Cold outlier (Low-High),-27.641024743458107,152.8483229398117,0.005
61402365,7-Eleven Jindalee,"Sumner Park Bc, Westlake, Mount Ommaney, Jamboree Heights, Sumner, Riverhills, Jindalee, Middle Park",215.9,65.01000000000002,‚ö†Ô∏è Expensive,Neutral,-27.536357,152.948876,0.399
61402404,7-Eleven Clontarf,"Scotts Point, Woody Point, Humpybong, Clontarf Dc, Clontarf, Margate, Margate Beach, Clontarf Beach",215.9,65.01000000000002,‚ö†Ô∏è Expensive,Neutral,-27.260601,153.080001,0.364
61478231,7-Eleven Kedron,"Kedron, Gordon Park, Glen Kedron",168.9,18.01000000000002,‚ö†Ô∏è Expensive,üü¢ Cold Spot (Low-Low),-27.39863917071317,153.03197252883606,0.002
61477752,7-Eleven Logan Reserve,"Chambers Flat, Logan Reserve, Waterford West, Waterford",215.9,65.01000000000002,‚ùå PRICE GOUGE,üî¥ Hot Spot (High-High),-27.696584,153.102784,0.003
61477855,7-Eleven Mango Hill,"Mango Hill, North Lakes",215.9,65.01000000000002,‚ùå PRICE GOUGE,üî¥ Hot Spot (High-High),-27.243654,153.025408,0.038
61402406,7-Eleven Flinders View,"Coalfalls, Ipswich, West Ipswich, Eastern Heights, North Ipswich, Woodend, Newtown, North Tivoli, Leichhardt, Basin Pocket, Bremer, Raceview, Yamanto, Raymonds Hill, Brassall Heights, Churchill, Tivoli, One Mile, Limestone Ridges, Brassall, Flinders View, East Ipswich, Moores Pocket, Wulkuraka, Sadliers Crossing",159.9,9.01000000000002,‚ö™ Market Price,üü¢ Cold Spot (Low-Low),-27.653447,152.762956,0.016
61477138,7-Eleven Kingston South,"Logan Central, Woodridge East, Trinder Park, Logan City Dc, Logan City Bc, Woodridge, Kingston",215.9,65.01000000000002,‚ùå PRICE GOUGE,üî¥ Hot Spot (High-High),-27.660149,153.117008,0.047
61477883,7-Eleven Rothwell,Rothwell,159.9,9.01000000000002,‚ö™ Market Price,Neutral,-27.211363,153.046688,0.104
61477675,7-Eleven Loganlea,"Loganlea, Meadowbrook",215.9,65.01000000000002,‚ùå PRICE GOUGE,üî¥ Hot Spot (High-High),-27.687281,153.137458,0.001
61477971,Ampol Wacol,"Wacol, Darra, Wacol East Immigration Centre",174.9,24.01000000000002,‚ö†Ô∏è Expensive,Neutral,-27.593553,152.922853,0.438
61477737,7-Eleven Burpengary,"Burpengary Dc, Burpengary, Burpengary East",215.9,65.01000000000002,‚ö†Ô∏è Expensive,Neutral,-27.153675,152.970824,0.137
61477685,7-Eleven Dakabin,"Kurwongbah, Kallangur, Griffin, Whiteside, Dakabin, Murrumba Downs, Dohles Rocks",215.9,65.01000000000002,‚ùå PRICE GOUGE,üî¥ Hot Spot (High-High),-27.232713,152.992111,0.015
61477928,7-Eleven Caboolture East,"Moodlu, Bellmere, Caboolture, Meldale, Upper Caboolture, Caboolture South, Balingool, Donnybrook, Caboolture Bc, Rocksberg, Beachmere, Toorbul",215.9,65.01000000000002,‚ö†Ô∏è Expensive,Neutral,-27.086517,152.965723,0.265
61477733,7-Eleven Caboolture North,"Moodlu, Bellmere, Caboolture, Meldale, Upper Caboolture, Caboolture South, Balingool, Donnybrook, Caboolture Bc, Rocksberg, Beachmere, Toorbul",215.9,65.01000000000002,‚ö†Ô∏è Expensive,Neutral,-27.060554,152.957646,0.233
61477962,7-Eleven Redland Bay South,"Mount Cotton, Redland Bay, Victoria Point West, Point Talburpin, Point Halloran, Victoria Point",215.9,65.01000000000002,‚ö†Ô∏è Expensive,Neutral,-27.637203,153.306042,0.231
61477960,7-Eleven Park Ridge,"Munruben, Park Ridge South, Park Ridge",215.9,65.01000000000002,‚ùå PRICE GOUGE,üî¥ Hot Spot (High-High),-27.698996,153.040984,0.007
61477731,7-Eleven Willawong,"Acacia Ridge, Acacia Ridge Bc, Acacia Ridge Dc, Heathwood Df, Willawong, Larapinta, Heathwood, Pallara",159.9,9.01000000000002,‚ö™ Market Price,üü¢ Cold Spot (Low-Low),-27.593842,153.003908,0.001
61477953,7-Eleven Bellmere,"Moodlu, Bellmere, Caboolture, Meldale, Upper Caboolture, Caboolture South, Balingool, Donnybrook, Caboolture Bc, Rocksberg, Beachmere, Toorbul",215.9,65.01000000000002,‚ö†Ô∏è Expensive,Neutral,-27.088853,152.927838,0.321
61477934,7-Eleven Keperra,"Grovely, Keperra, Arana Hills",215.9,65.01000000000002,‚ö†Ô∏è Expensive,Neutral,-27.42016890675928,152.94846237168883,0.454
61477720,7-Eleven Salisbury,"Salisbury, Salisbury East",169.9,19.01000000000002,‚ö†Ô∏è Expensive,üü¢ Cold Spot (Low-Low),-27.544513,153.039614,0.001
61477718,7-Eleven Tingalpa,"Tingalpa Dc, Tingalpa, Tingalpa Bc",159.9,9.01000000000002,‚ö™ Market Price,Neutral,-27.471719,153.110322,0.105
61477696,7-Eleven Cleveland,"Cleveland Dc, Cleveland",161.9,11.01000000000002,‚ö™ Market Price,Neutral,-27.524539,153.256024,0.299
61477943,7-Eleven Doolandella,"Inala West, Inala East, Inala, Serviceton, Richlands Dc, Richlands Bc, Durack, Inala Heights, Doolandella, Richlands",159.9,9.01000000000002,‚ö™ Market Price,üü¢ Cold Spot (Low-Low),-27.612414,152.987602,0.002
61477974,7-Eleven Regents Park,"Brownsleigh, Forestdale, Heritage Park, Browns Plains Bc, Hillcrest, Regents Park, Browns Plains",215.9,65.01000000000002,‚ùå PRICE GOUGE,üî¥ Hot Spot (High-High),-27.688181,153.037662,0.007
61478089,7-Eleven Brisbane East,"East Brisbane, Stanley Bridge, Kangaroo Point",161.9,11.01000000000002,‚ö™ Market Price,Neutral,-27.488400458163543,153.04863777560195,0.491
61477897,7-Eleven Hillcrest,"Brownsleigh, Forestdale, Heritage Park, Browns Plains Bc, Hillcrest, Regents Park, Browns Plains",215.9,65.01000000000002,‚ùå PRICE GOUGE,üî¥ Hot Spot (High-High),-27.663668,153.034904,0.014
61477979,7-Eleven Eden's Crossing,"Collingwood Park, Redbank, Redbank Plains, Greenwood Village",215.9,65.01000000000002,‚ö†Ô∏è Expensive,Neutral,-27.668754,152.842579,0.161
61478057,7-Eleven Chandler,Chandler,215.9,65.01000000000002,‚ö†Ô∏è Expensive,Neutral,-27.516123,153.181907,0.245
61477091,7-Eleven North Lakes,"Mango Hill, North Lakes",215.9,65.01000000000002,‚ö†Ô∏è Expensive,Neutral,-27.220937,152.999794,0.055
61477140,7-Eleven Deception Bay,Deception Bay,215.9,65.01000000000002,‚ö†Ô∏è Expensive,Neutral,-27.196842,153.015639,0.27
61477143,7-Eleven Taigum,"Taigum, Fitzgibbon",163.9,13.01000000000002,‚ö™ Market Price,üü¢ Cold Spot (Low-Low),-27.342366,153.041502,0.002
61478041,7-Eleven  Bracken Ridge North,"Nashville, Shorncliffe, Brighton Eventide, Sandgate, Sandgate Dc, Brighton, Brighton Nathan Street, Deagon, Bracken Ridge",159.9,9.01000000000002,‚ö™ Market Price,Neutral,-27.309904,153.025512,0.085
61477751,7-Eleven Tingalpa North,"Tingalpa Dc, Tingalpa, Tingalpa Bc",215.9,65.01000000000002,‚ö†Ô∏è Expensive,Neutral,-27.467655,153.152472,0.077
61478030,7-Eleven Eight Mile Plains Northbound,"Fruitgrove, Runcorn, Eight Mile Plains",215.9,65.01000000000002,‚ö†Ô∏è Expensive,Neutral,-27.573523,153.090669,0.391
61477665,7-Eleven Heathwood,"Acacia Ridge, Acacia Ridge Bc, Acacia Ridge Dc, Heathwood Df, Willawong, Larapinta, Heathwood, Pallara",159.9,9.01000000000002,‚ö™ Market Price,üü¢ Cold Spot (Low-Low),-27.630712,152.986492,0.006
61477749,7-Eleven Caboolture,"Moodlu, Bellmere, Caboolture, Meldale, Upper Caboolture, Caboolture South, Balingool, Donnybrook, Caboolture Bc, Rocksberg, Beachmere, Toorbul",215.9,65.01000000000002,‚ö†Ô∏è Expensive,Neutral,-27.077539,152.950377,0.455
61477741,7-Eleven North Lakes Central,"Mango Hill, North Lakes",215.9,65.01000000000002,‚ö†Ô∏è Expensive,Neutral,-27.238573,153.008647,0.069
61477740,7-Eleven Griffin,"Kurwongbah, Kallangur, Griffin, Whiteside, Dakabin, Murrumba Downs, Dohles Rocks",215.9,65.01000000000002,‚ö†Ô∏è Expensive,Neutral,-27.260491,153.024233,0.128
61478018,7-Eleven Morayfield East,"Moorina, Morayfield",164.9,14.01000000000002,‚ö™ Market Price,Neutral,-27.109139,152.967497,0.05
61477885,7-Eleven Strathpine Northbound,"Bray Park, Strathpine, Clear Mountain, Warner, Brendale Dc, Joyner, Brendale Bc, Strathpine City, Strathpine Centre, Cashmere, Brendale",163.9,13.01000000000002,‚ö™ Market Price,Neutral,-27.308062,152.989949,0.107
61477738,Shell Reddy Express Kedron,"Kedron, Gordon Park, Glen Kedron",168.9,18.01000000000002,‚ö†Ô∏è Expensive,üü¢ Cold Spot (Low-Low),-27.402657,153.031179,0.001
61477669,7-Eleven Virginia,"Virginia Bc, Virginia, Banyo, Virginia Dc, Nudgee Beach, Nudgee",161.9,11.01000000000002,‚ö™ Market Price,üü¢ Cold Spot (Low-Low),-27.371366,153.062734,0.001
61477890,7-Eleven Eight Mile Plains,"Fruitgrove, Runcorn, Eight Mile Plains",159.9,9.01000000000002,‚ö™ Market Price,Neutral,-27.585578,153.103765,0.22
61477779,7-Eleven West Ipswich,"Coalfalls, Ipswich, West Ipswich, Eastern Heights, North Ipswich, Woodend, Newtown, North Tivoli, Leichhardt, Basin Pocket, Bremer, Raceview, Yamanto, Raymonds Hill, Brassall Heights, Churchill, Tivoli, One Mile, Limestone Ridges, Brassall, Flinders View, East Ipswich, Moores Pocket, Wulkuraka, Sadliers Crossing",215.9,65.01000000000002,‚ö†Ô∏è Expensive,üü† Hot outlier (High-Low),-27.621919,152.747585,0.016
61478288,7-Eleven Collingwood Park,"Collingwood Park, Redbank, Redbank Plains, Greenwood Village",215.9,65.01000000000002,‚ùå PRICE GOUGE,üî¥ Hot Spot (High-High),-27.62425080880812,152.85782253032556,0.034
61402204,7-Eleven Boronia Heights,"Brownsleigh, Forestdale, Heritage Park, Browns Plains Bc, Hillcrest, Regents Park, Browns Plains",215.9,65.01000000000002,‚ùå PRICE GOUGE,üî¥ Hot Spot (High-High),-27.678754,153.021806,0.019
61401477,7-Eleven Springwood,"Daisy Hill, Slacks Creek, Springwood, Springwood Bc, Chatswood Hills, Priestdale",159.9,9.01000000000002,‚ö™ Market Price,Neutral,-27.61011953521952,153.12405772883605,0.252
61401478,Shell Reddy Express Springwood,"Daisy Hill, Slacks Creek, Springwood, Springwood Bc, Chatswood Hills, Priestdale",215.9,65.01000000000002,‚ö†Ô∏è Expensive,Neutral,-27.63364586120715,153.13148941964337,0.261
61401479,7-Eleven Woodridge,"Logan Central, Woodridge East, Trinder Park, Logan City Dc, Logan City Bc, Woodridge, Kingston",159.9,9.01000000000002,‚ö™ Market Price,Neutral,-27.619142,153.104903,0.396
61401483,7-Eleven Logan City,"Logan Central, Woodridge East, Trinder Park, Logan City Dc, Logan City Bc, Woodridge, Kingston",215.9,65.01000000000002,‚ö†Ô∏è Expensive,Neutral,-27.641222,153.107393,0.326
61401487,BP Redland Bay,"Mount Cotton, Redland Bay, Victoria Point West, Point Talburpin, Point Halloran, Victoria Point",215.9,65.01000000000002,‚ùå PRICE GOUGE,üî¥ Hot Spot (High-High),-27.606017,153.288087,0.027
61401508,7-Eleven Redbank Plains,"Collingwood Park, Redbank, Redbank Plains, Greenwood Village",215.9,65.01000000000002,‚ö†Ô∏è Expensive,Neutral,-27.644962,152.871677,0.196
61401512,7-Eleven Marsden,"Marsden, Marsden Postal Depot, Crestmead Dc, Crestmead",215.9,65.01000000000002,‚ùå PRICE GOUGE,üî¥ Hot Spot (High-High),-27.680481,153.114522,0.001
61401517,Shell Reddy Express Loganholme,"Loganholme Dc, Logandale, Loganholme Bc, Loganholme",215.9,65.01000000000002,‚ö†Ô∏è Expensive,Neutral,-27.663192,153.177483,0.156
61401523,Ampol Foodary Carseldine,"Carseldine, Aspley, Geebung, Zillmere, Boondall",215.9,65.01000000000002,‚ö†Ô∏è Expensive,üü† Hot outlier (High-Low),-27.342121,153.010681,0.012
61401543,7-Eleven Kensington Hills,"Bray Park, Strathpine, Clear Mountain, Warner, Brendale Dc, Joyner, Brendale Bc, Strathpine City, Strathpine Centre, Cashmere, Brendale",215.9,65.01000000000002,‚ö†Ô∏è Expensive,Neutral,-27.296911,152.975214,0.108
61401545,Freedom Fuels Mt Gravatt,"Mount Gravatt East, Upper Mount Gravatt, Mansfield, Mount Gravatt, Upper Mount Gravatt Bc, Mansfield Dc, Mansfield Bc, Wishart",174.5,23.610000000000014,‚ö†Ô∏è Expensive,üîµ Cold outlier (Low-High),-27.536391,153.087947,0.024
61401547,7-Eleven Kingston,"Logan Central, Woodridge East, Trinder Park, Logan City Dc, Logan City Bc, Woodridge, Kingston",215.9,65.01000000000002,‚ö†Ô∏è Expensive,Neutral,-27.644668,153.118247,0.142
61401588,7-Eleven Victoria Point,"Mount Cotton, Redland Bay, Victoria Point West, Point Talburpin, Point Halloran, Victoria Point",215.9,65.01000000000002,‚ö†Ô∏è Expensive,Neutral,-27.584259,153.281142,0.194
61401471,7-Eleven Algester,"Parkinson, Algester",215.9,65.01000000000002,‚ö†Ô∏è Expensive,Neutral,-27.612647,153.039653,0.051
61401602,7-Eleven Browns Plains,"Brownsleigh, Forestdale, Heritage Park, Browns Plains Bc, Hillcrest, Regents Park, Browns Plains",168.9,18.01000000000002,‚ö†Ô∏è Expensive,üîµ Cold outlier (Low-High),-27.664021,153.063245,0.001
61401616,7-Eleven Browns Plain,"Brownsleigh, Forestdale, Heritage Park, Browns Plains Bc, Hillcrest, Regents Park, Browns Plains",168.9,18.01000000000002,‚ö†Ô∏è Expensive,üîµ Cold outlier (Low-High),-27.664026,153.061551,0.001
61401621,7-Eleven Woodridge,"Logan Central, Woodridge East, Trinder Park, Logan City Dc, Logan City Bc, Woodridge, Kingston",159.9,9.01000000000002,‚ö™ Market Price,Neutral,-27.620499,153.115408,0.399
61402208,7-Eleven Bracken Ridge,"Nashville, Shorncliffe, Brighton Eventide, Sandgate, Sandgate Dc, Brighton, Brighton Nathan Street, Deagon, Bracken Ridge",159.9,9.01000000000002,‚ö™ Market Price,üü¢ Cold Spot (Low-Low),-27.330901,153.025787,0.003
61401676,7-Eleven Gumdale,"Ransome, Gumdale, Wakerley",213.9,63.01000000000002,‚ùå PRICE GOUGE,üî¥ Hot Spot (High-High),-27.491043,153.152854,0.031
61401691,Freedom Fuels Brendale,"Bray Park, Strathpine, Clear Mountain, Warner, Brendale Dc, Joyner, Brendale Bc, Strathpine City, Strathpine Centre, Cashmere, Brendale",169.5,18.610000000000014,‚ö†Ô∏è Expensive,Neutral,-27.317652,152.987865,0.211
61401703,Pearl Energy Willawong,"Acacia Ridge, Acacia Ridge Bc, Acacia Ridge Dc, Heathwood Df, Willawong, Larapinta, Heathwood, Pallara",154.5,3.6100000000000136,üåü SUPER VALUE,üü¢ Cold Spot (Low-Low),-27.59451534349924,153.00412895337297,0.001
61401729,Freedom Fuels Victoria Point,"Mount Cotton, Redland Bay, Victoria Point West, Point Talburpin, Point Halloran, Victoria Point",174.9,24.01000000000002,‚ö†Ô∏è Expensive,üîµ Cold outlier (Low-High),-27.584835,153.301205,0.001
61401737,Pearl Energy Durack,"Inala West, Inala East, Inala, Serviceton, Richlands Dc, Richlands Bc, Durack, Inala Heights, Doolandella, Richlands",154.5,3.6100000000000136,üåü SUPER VALUE,üü¢ Cold Spot (Low-Low),-27.595968,152.987555,0.001
61401754,Ampol Foodary Wishart,"Mount Gravatt East, Upper Mount Gravatt, Mansfield, Mount Gravatt, Upper Mount Gravatt Bc, Mansfield Dc, Mansfield Bc, Wishart",161.9,11.01000000000002,‚ö™ Market Price,Neutral,-27.548472,153.107989,0.084
61401769,Shell Reddy Express Albany Creek,"Albany Creek, Bridgeman Downs, Cashs Crossing",215.9,65.01000000000002,‚ö†Ô∏è Expensive,Neutral,-27.345888,152.964409,0.099
61401770,NightOwl Shell Wakerley,"Ransome, Gumdale, Wakerley",195.9,45.01000000000002,‚ùå PRICE GOUGE,üî¥ Hot Spot (High-High),-27.493179,153.168917,0.008
61401775,Ampol Foodary Bellbowrie,"Priors Pocket, Bellbowrie, Moggill, Anstead",215.9,65.01000000000002,‚ö†Ô∏è Expensive,Neutral,-27.562496,152.886875,0.339
61401858,United Caboolture,"Moodlu, Bellmere, Caboolture, Meldale, Upper Caboolture, Caboolture South, Balingool, Donnybrook, Caboolture Bc, Rocksberg, Beachmere, Toorbul",169.7,18.810000000000002,‚ö†Ô∏è Expensive,Neutral,-27.079253,152.951795,0.291
61401605,BP Annerley,"Annerley Dc, Thompson Estate, Fairfield Gardens, Annerley, Fairfield",165.9,15.01000000000002,‚ö†Ô∏è Expensive,üü¢ Cold Spot (Low-Low),-27.522428,153.025696,0.001
61401460,7-Eleven Dinmore,"Riverview, New Chum, Dinmore",215.9,65.01000000000002,‚ö†Ô∏è Expensive,Neutral,-27.598004,152.832107,0.208
61401457,7-Eleven North Ipswich,"Coalfalls, Ipswich, West Ipswich, Eastern Heights, North Ipswich, Woodend, Newtown, North Tivoli, Leichhardt, Basin Pocket, Bremer, Raceview, Yamanto, Raymonds Hill, Brassall Heights, Churchill, Tivoli, One Mile, Limestone Ridges, Brassall, Flinders View, East Ipswich, Moores Pocket, Wulkuraka, Sadliers Crossing",215.9,65.01000000000002,‚ö†Ô∏è Expensive,Neutral,-27.603119,152.761629,0.474
61401445,7-Eleven Wishart,"Mount Gravatt East, Upper Mount Gravatt, Mansfield, Mount Gravatt, Upper Mount Gravatt Bc, Mansfield Dc, Mansfield Bc, Wishart",161.9,11.01000000000002,‚ö™ Market Price,Neutral,-27.556364,153.089765,0.152
61401118,7-Eleven East Brisbane,"East Brisbane, Stanley Bridge, Kangaroo Point",159.9,9.01000000000002,‚ö™ Market Price,Neutral,-27.48469982543029,153.03976776686477,0.267
61401156,Freedom Fuels Thorneside,Thorneside,184.5,33.610000000000014,‚ö†Ô∏è Expensive,üîµ Cold outlier (Low-High),-27.488687,153.194782,0.009
61401173,BP Indooroopilly,"Long Pocket, Indooroopilly Centre, Indooroopilly, Taringa, Chelmer",169.9,19.01000000000002,‚ö†Ô∏è Expensive,üîµ Cold outlier (Low-High),-27.499530327092497,152.9754396405449,0.024
61401177,7-Eleven Graceville,"Corinda, Oxley, Graceville East, Graceville, Sherwood",159.9,9.01000000000002,‚ö™ Market Price,Neutral,-27.521931,152.980164,0.115
61401185,7-Eleven Fairfield Gardens,"Annerley Dc, Thompson Estate, Fairfield Gardens, Annerley, Fairfield",215.9,65.01000000000002,‚ö†Ô∏è Expensive,üü† Hot outlier (High-Low),-27.508609,153.025429,0.008
61401188,7-Eleven Yeronga,"Yeronga, Yeronga West",215.9,65.01000000000002,‚ö†Ô∏è Expensive,üü† Hot outlier (High-Low),-27.519285,153.015135,0.001
61401189,7-Eleven Moorvale,"Tennyson, Clifton Hill, Moorvale, Moorooka, Yeerongpilly",159.9,9.01000000000002,‚ö™ Market Price,üü¢ Cold Spot (Low-Low),-27.524123,153.023568,0.001
61401200,7-Eleven Greenslopes,"Greenslopes, Loreto Hill, Stones Corner",159.9,9.01000000000002,‚ö™ Market Price,Neutral,-27.504612,153.040209,0.274
61401228,7-Eleven Redcliffe,"Redcliffe, Redcliffe North, Scarborough, Newport",215.9,65.01000000000002,‚ö†Ô∏è Expensive,Neutral,-27.230354,153.109317,0.349
61401246,7-Eleven Strathpine,"Bray Park, Strathpine, Clear Mountain, Warner, Brendale Dc, Joyner, Brendale Bc, Strathpine City, Strathpine Centre, Cashmere, Brendale",163.9,13.01000000000002,‚ö™ Market Price,Neutral,-27.307774,152.990528,0.102
61401249,7-Eleven Eatons Hill,Eatons Hill,215.9,65.01000000000002,‚ö†Ô∏è Expensive,Neutral,-27.337933,152.960099,0.062
61401250,7-Eleven Bald Hills,Bald Hills,215.9,65.01000000000002,‚ö†Ô∏è Expensive,üü† Hot outlier (High-Low),-27.319376,153.006967,0.037
61401257,7-Eleven Sandgate,"Nashville, Shorncliffe, Brighton Eventide, Sandgate, Sandgate Dc, Brighton, Brighton Nathan Street, Deagon, Bracken Ridge",159.9,9.01000000000002,‚ö™ Market Price,üü¢ Cold Spot (Low-Low),-27.321088,153.067931,0.002
61401264,7-Eleven Aspley,"Carseldine, Aspley, Geebung, Zillmere, Boondall",169.9,19.01000000000002,‚ö†Ô∏è Expensive,üü¢ Cold Spot (Low-Low),-27.358443,153.017037,0.002
61401276,7-Eleven Aspley,"Carseldine, Aspley, Geebung, Zillmere, Boondall",166.9,16.01000000000002,‚ö†Ô∏è Expensive,üü¢ Cold Spot (Low-Low),-27.364758,153.026257,0.003
61401282,BP Geebung,"Carseldine, Aspley, Geebung, Zillmere, Boondall",166.9,16.01000000000002,‚ö†Ô∏è Expensive,üü¢ Cold Spot (Low-Low),-27.379293,153.046309,0.002
61401296,Freedom Fuels Nudgee,"Virginia Bc, Virginia, Banyo, Virginia Dc, Nudgee Beach, Nudgee",159.5,8.610000000000014,‚ö™ Market Price,Neutral,-27.386791,153.087063,0.053
61401324,7-Eleven Newmarket,"Alderley, Newmarket, Wilston, The Grange, Gaythorne, Enoggera, Grange",163.9,13.01000000000002,‚ö™ Market Price,üü¢ Cold Spot (Low-Low),-27.438767,153.007379,0.022
61401334,Ampol Foodary Stafford,"Stafford Heights, Everton Hills, Mcdowall, Mitchelton, Stafford City, Stafford Dc, Oxford Park, Somerset Hills, Brookside Centre, Everton Park, Stafford Bc, Stafford",215.9,65.01000000000002,‚ö†Ô∏è Expensive,üü† Hot outlier (High-Low),-27.411093,153.023635,0.001
61401349,7-Eleven Albion,"Albion Dc, Albion, Albion Bc, Breakfast Creek",215.9,65.01000000000002,‚ö†Ô∏è Expensive,Neutral,-27.4289939652634,153.036903,0.064
61401357,7-Eleven Ascot,"Whinstanes, Hamilton Central, Doomben, Brisbane Airport, Ascot, Hamilton",215.9,65.01000000000002,‚ö†Ô∏è Expensive,Neutral,-27.428241,153.062278,0.086
61401375,7-Eleven The Gap,The Gap,215.9,65.01000000000002,‚ö†Ô∏è Expensive,Neutral,-27.442904,152.943808,0.414
61401380,7-Eleven Ashgrove,"Ashgrove East, St Johns Wood, Ashgrove West, Dorrington, Ashgrove",159.9,9.01000000000002,‚ö™ Market Price,Neutral,-27.445996,152.991244,0.184
61401399,7-Eleven Mt Gravatt East,"Mount Gravatt East, Upper Mount Gravatt, Mansfield, Mount Gravatt, Upper Mount Gravatt Bc, Mansfield Dc, Mansfield Bc, Wishart",215.9,65.01000000000002,‚ùå PRICE GOUGE,üî¥ Hot Spot (High-High),-27.531577,153.093146,0.02
61401422,7-Eleven Durack,"Inala West, Inala East, Inala, Serviceton, Richlands Dc, Richlands Bc, Durack, Inala Heights, Doolandella, Richlands",215.9,65.01000000000002,‚ö†Ô∏è Expensive,üü† Hot outlier (High-Low),-27.579387,152.974637,0.001
61401436,NightOwl BP Sunnybank,"Sunnybank, Robertson, Altandi, Macgregor, Sunnybank Hills, Sunnybank South, Banoon",215.9,65.01000000000002,‚ö†Ô∏è Expensive,Neutral,-27.566916,153.064574,0.053
61401438,Shell Reddy Express Sunnybank,"Sunnybank, Robertson, Altandi, Macgregor, Sunnybank Hills, Sunnybank South, Banoon",215.9,65.01000000000002,‚ö†Ô∏è Expensive,Neutral,-27.575889,153.062992,0.076
61401441,7-Eleven Acacia Ridge,"Acacia Ridge, Acacia Ridge Bc, Acacia Ridge Dc, Heathwood Df, Willawong, Larapinta, Heathwood, Pallara",159.9,9.01000000000002,‚ö™ Market Price,üü¢ Cold Spot (Low-Low),-27.589068,153.027286,0.002
61401444,7-Eleven Acacia Ridge East,"Acacia Ridge, Acacia Ridge Bc, Acacia Ridge Dc, Heathwood Df, Willawong, Larapinta, Heathwood, Pallara",159.9,9.01000000000002,‚ö™ Market Price,üü¢ Cold Spot (Low-Low),-27.575428,153.039586,0.002
61401868,7-Eleven Morayfield,"Moorina, Morayfield",171.9,21.01000000000002,‚ö†Ô∏è Expensive,Neutral,-27.112363,152.950651,0.09
61401886,Liberty Sunnybank Hills,"Sunnybank, Robertson, Altandi, Macgregor, Sunnybank Hills, Sunnybank South, Banoon",157.7,6.810000000000002,‚ö™ Market Price,Neutral,-27.602084,153.056501,0.219
61401625,Solo Rocklea,"Rocklea Dc, Rocklea, Brisbane Market",154.5,3.6100000000000136,üåü SUPER VALUE,üü¢ Cold Spot (Low-Low),-27.54085919169559,153.0089030932541,0.001
61401888,7-Eleven Richlands,"Inala West, Inala East, Inala, Serviceton, Richlands Dc, Richlands Bc, Durack, Inala Heights, Doolandella, Richlands",159.9,9.01000000000002,‚ö™ Market Price,üü¢ Cold Spot (Low-Low),-27.597824,152.949918,0.045
61401941,7-Eleven Wynnum,"Wynnum Central, Lindum, Port Of Brisbane, Wynnum Plaza, Wynnum West, Wynnum, Wynnum North, Lytton",215.9,65.01000000000002,‚ö†Ô∏è Expensive,Neutral,-27.446069,153.171941,0.064
61401956,Caltex Booval,"North Booval, Ebbw Vale, Booval Fair, Silkstone, Booval Dc, Bundamba, Blackstone, Booval, Booval Bc",159.5,8.610000000000014,‚ö™ Market Price,Neutral,-27.612973,152.798948,0.106
61402090,7-Eleven Murarrie,Murarrie,159.9,9.01000000000002,‚ö™ Market Price,üîµ Cold outlier (Low-High),-27.456902,153.105682,0.048
61401930,7-Eleven Mackenzie,"Mackenzie, Burbank",215.9,65.01000000000002,‚ö†Ô∏è Expensive,Neutral,-27.545381,153.121763,0.142
61402091,7-Eleven Bray Park,"Bray Park, Strathpine, Clear Mountain, Warner, Brendale Dc, Joyner, Brendale Bc, Strathpine City, Strathpine Centre, Cashmere, Brendale",215.9,65.01000000000002,‚ö†Ô∏è Expensive,Neutral,-27.292016,152.954828,0.375
61401926,Freedom Fuels Karana Downs,"Dundas, Peak Crossing, Fairney View, Wanora, Haigslea, Goolman, Moore, South Ripley, Muirlea, Karana Downs, Wivenhoe Pocket, Karrabin, Vernor, Benarkin, Lake Manchester, Fernvale, Amberley, Mount Binga, Lark Hill, Chuwar, Banks Creek, Ripley, Mount Stanley, Thagoona, Blacksoil, Blackbutt, Mount Crosby, Nukku, Split Yard Creek, Mount Marrow, Holts Hill, Bellhaven, Willowbank, Pine Mountain, Purga, Ironbark, Glamorgan Vale, White Rock, Teelah, Blackbutt South, Loamside, Forest Glade, Kholo, Wivenhoe, England Creek, West Amberley, Monsildale, Blackwall, Borallon, Colinton, Benarkin North, Cherry Creek, Googa Creek, Barellan Point, Deebing Heights, Blackbutt North, Washpool, Taromeo, Linville, Harlin, Karalee, Avoca Vale, Walloon, Swanbank",175.9,25.01000000000002,‚ö†Ô∏è Expensive,Neutral,-27.546897,152.822363,0.09
61401924,Ampol Foodary Strathpine,"Bray Park, Strathpine, Clear Mountain, Warner, Brendale Dc, Joyner, Brendale Bc, Strathpine City, Strathpine Centre, Cashmere, Brendale",215.9,65.01000000000002,‚ö†Ô∏è Expensive,Neutral,-27.326024,152.979019,0.39
61401923,7-Eleven Manly West,"Lota, Manly West, Manly",215.9,65.01000000000002,‚ùå PRICE GOUGE,üî¥ Hot Spot (High-High),-27.475413,153.165772,0.008
61402107,7-Eleven Carina,"Carina, Camp Hill, Whites Hill, Carina Heights, Carindale, Carina North",164.9,14.01000000000002,‚ö™ Market Price,Neutral,-27.487654,153.100211,0.195
61402127,7-Eleven Murrumba Downs,"Kurwongbah, Kallangur, Griffin, Whiteside, Dakabin, Murrumba Downs, Dohles Rocks",215.9,65.01000000000002,‚ö†Ô∏è Expensive,Neutral,-27.273405,153.015282,0.168
61401887,Ampol Foodary Cleveland Shore St,"Cleveland Dc, Cleveland",215.9,65.01000000000002,‚ö†Ô∏è Expensive,Neutral,-27.524198,153.253795,0.416
61402092,7-Eleven Birkdale,Birkdale,215.9,65.01000000000002,‚ö†Ô∏è Expensive,Neutral,-27.508734,153.207099,0.142
61402098,7-Eleven Heritage Park,"Brownsleigh, Forestdale, Heritage Park, Browns Plains Bc, Hillcrest, Regents Park, Browns Plains",215.9,65.01000000000002,‚ùå PRICE GOUGE,üî¥ Hot Spot (High-High),-27.673109458819063,153.05285839123795,0.003
61402101,7-Eleven Pinelands Road,"Sunnybank, Robertson, Altandi, Macgregor, Sunnybank Hills, Sunnybank South, Banoon",215.9,65.01000000000002,‚ö†Ô∏è Expensive,Neutral,-27.591492,153.060381,0.067
61401907,United Bald Hills,Bald Hills,162.7,11.810000000000002,‚ö™ Market Price,Neutral,-27.317756,153.009186,0.119
61401914,7-Eleven Albany Creek,"Carseldine, Aspley, Geebung, Zillmere, Boondall",163.9,13.01000000000002,‚ö™ Market Price,üü¢ Cold Spot (Low-Low),-27.363889718122927,153.01311577315525,0.025
61401261,EG Ampol Deagon,"Nashville, Shorncliffe, Brighton Eventide, Sandgate, Sandgate Dc, Brighton, Brighton Nathan Street, Deagon, Bracken Ridge",158.9,8.01000000000002,‚ö™ Market Price,üü¢ Cold Spot (Low-Low),-27.334055,153.059565,0.001
61402245,BP Capalaba South,"Capalaba West, Sheldon, Capalaba, Capalaba Dc, Capalaba Bc",161.9,11.01000000000002,‚ö™ Market Price,Neutral,-27.534996,153.206193,0.137
61402246,EG Ampol Browns Plains,"Brownsleigh, Forestdale, Heritage Park, Browns Plains Bc, Hillcrest, Regents Park, Browns Plains",215.9,65.01000000000002,‚ùå PRICE GOUGE,üî¥ Hot Spot (High-High),-27.663979,153.042319,0.009
61401279,BP Connect Virginia,"Virginia Bc, Virginia, Banyo, Virginia Dc, Nudgee Beach, Nudgee",159.9,9.01000000000002,‚ö™ Market Price,üü¢ Cold Spot (Low-Low),-27.374203,153.061916,0.001
61401298,BP Northgate,"Northgate Mc, Northgate",161.9,11.01000000000002,‚ö™ Market Price,üü¢ Cold Spot (Low-Low),-27.393208,153.072252,0.019
61401323,BP Express Ashgrove,"Ashgrove East, St Johns Wood, Ashgrove West, Dorrington, Ashgrove",157.9,7.010000000000019,‚ö™ Market Price,Neutral,-27.439192,152.989914,0.099
61401307,BP Ferny Grove,"Ferny Hills Dc, Bunya, Ferny Hills, Kedron Upper, Ferny Grove, Upper Kedron",215.9,65.01000000000002,‚ö†Ô∏è Expensive,Neutral,-27.402342,152.937156,0.114
61401281,EG Ampol Chermside,"Chermside South, Craigslea, Chermside Bc, Chermside Centre, Chermside, Chermside West",163.9,13.01000000000002,‚ö™ Market Price,üü¢ Cold Spot (Low-Low),-27.375007,153.024566,0.005
61402237,EG Ampol Alexandra Hills,Alexandra Hills,215.9,65.01000000000002,‚ö†Ô∏è Expensive,Neutral,-27.525038,153.221226,0.429
61401291,Ampol Foodary Nundah,"Nundah, Wavell Heights, Wavell Heights North, Toombul",160.9,10.01000000000002,‚ö™ Market Price,üü¢ Cold Spot (Low-Low),-27.398473,153.059252,0.049
61402106,EG Ampol Margate,"Scotts Point, Woody Point, Humpybong, Clontarf Dc, Clontarf, Margate, Margate Beach, Clontarf Beach",215.9,65.01000000000002,‚ö†Ô∏è Expensive,Neutral,-27.244479,153.109334,0.352
61402125,EG Ampol Acacia Ridge,"Acacia Ridge, Acacia Ridge Bc, Acacia Ridge Dc, Heathwood Df, Willawong, Larapinta, Heathwood, Pallara",157.9,7.010000000000019,‚ö™ Market Price,üü¢ Cold Spot (Low-Low),-27.575298,153.026169,0.001
61402226,S24 The Gap,The Gap,215.9,65.01000000000002,‚ö†Ô∏è Expensive,Neutral,-27.44460750531628,152.952606,0.443
61402227,BP Connect Bribie Island,"Woorim, Welsby, White Patch, Bribie Island North, Bribie Island Dc, Banksia Beach, Bribie Island, Bellara, Bongaree",164.9,14.01000000000002,‚ö™ Market Price,Neutral,-27.063878064409337,153.1555978687172,0.102
61402210,EG Ampol Mango Hill,"Mango Hill, North Lakes",161.9,11.01000000000002,‚ö™ Market Price,üîµ Cold outlier (Low-High),-27.223195,153.037501,0.045
61478248,OTR Swanbank,"Dundas, Peak Crossing, Fairney View, Wanora, Haigslea, Goolman, Moore, South Ripley, Muirlea, Karana Downs, Wivenhoe Pocket, Karrabin, Vernor, Benarkin, Lake Manchester, Fernvale, Amberley, Mount Binga, Lark Hill, Chuwar, Banks Creek, Ripley, Mount Stanley, Thagoona, Blacksoil, Blackbutt, Mount Crosby, Nukku, Split Yard Creek, Mount Marrow, Holts Hill, Bellhaven, Willowbank, Pine Mountain, Purga, Ironbark, Glamorgan Vale, White Rock, Teelah, Blackbutt South, Loamside, Forest Glade, Kholo, Wivenhoe, England Creek, West Amberley, Monsildale, Blackwall, Borallon, Colinton, Benarkin North, Cherry Creek, Googa Creek, Barellan Point, Deebing Heights, Blackbutt North, Washpool, Taromeo, Linville, Harlin, Karalee, Avoca Vale, Walloon, Swanbank",215.9,65.01000000000002,‚ö†Ô∏è Expensive,Neutral,-27.675319041570603,152.83636513523064,0.16
61401119,BP East Brisbane,"East Brisbane, Stanley Bridge, Kangaroo Point",159.9,9.01000000000002,‚ö™ Market Price,Neutral,-27.479316,153.043606,0.363
61402202,BP Archerfield,"Archerfield, Archerfield Bc, Coopers Plains",157.9,7.010000000000019,‚ö™ Market Price,üü¢ Cold Spot (Low-Low),-27.565677,152.998169,0.001
61401157,EG Ampol Birkdale,Birkdale,215.9,65.01000000000002,‚ö†Ô∏è Expensive,Neutral,-27.494931,153.212762,0.199
61401159,BP Wellington Point,"Wellington Point, Erobin, Ormiston",215.9,65.01000000000002,‚ö†Ô∏è Expensive,Neutral,-27.487062,153.238493,0.091
61401167,Ampol Foodary Kenmore,"Pullenvale, Pinjarra Hills, Lone Pine, Brookfield, Kenmore Dc, Kenmore East, Fig Tree Pocket, Upper Brookfield, Chapel Hill, Kenmore, Kenmore Hills",215.9,65.01000000000002,‚ö†Ô∏è Expensive,Neutral,-27.507802,152.948185,0.252
61478220,EG Ampol Ripley South,"Dundas, Peak Crossing, Fairney View, Wanora, Haigslea, Goolman, Moore, South Ripley, Muirlea, Karana Downs, Wivenhoe Pocket, Karrabin, Vernor, Benarkin, Lake Manchester, Fernvale, Amberley, Mount Binga, Lark Hill, Chuwar, Banks Creek, Ripley, Mount Stanley, Thagoona, Blacksoil, Blackbutt, Mount Crosby, Nukku, Split Yard Creek, Mount Marrow, Holts Hill, Bellhaven, Willowbank, Pine Mountain, Purga, Ironbark, Glamorgan Vale, White Rock, Teelah, Blackbutt South, Loamside, Forest Glade, Kholo, Wivenhoe, England Creek, West Amberley, Monsildale, Blackwall, Borallon, Colinton, Benarkin North, Cherry Creek, Googa Creek, Barellan Point, Deebing Heights, Blackbutt North, Washpool, Taromeo, Linville, Harlin, Karalee, Avoca Vale, Walloon, Swanbank",163.9,13.01000000000002,‚ö™ Market Price,Neutral,-27.69132089938983,152.8031637374344,0.332
61478219,EG Ampol Caboolture South,"Moodlu, Bellmere, Caboolture, Meldale, Upper Caboolture, Caboolture South, Balingool, Donnybrook, Caboolture Bc, Rocksberg, Beachmere, Toorbul",168.9,18.01000000000002,‚ö†Ô∏è Expensive,Neutral,-27.096278400080852,152.9488247396431,0.203
61402212,EG Ampol Capalaba,"Capalaba West, Sheldon, Capalaba, Capalaba Dc, Capalaba Bc",161.9,11.01000000000002,‚ö™ Market Price,Neutral,-27.514796,153.181279,0.105
61402213,Station 61402213,Unknown,159.9,9.01000000000002,‚ö™ Market Price,üü¢ Cold Spot (Low-Low),-27.623694,152.969352,0.011
61402214,EG Ampol Yamanto,"Coalfalls, Ipswich, West Ipswich, Eastern Heights, North Ipswich, Woodend, Newtown, North Tivoli, Leichhardt, Basin Pocket, Bremer, Raceview, Yamanto, Raymonds Hill, Brassall Heights, Churchill, Tivoli, One Mile, Limestone Ridges, Brassall, Flinders View, East Ipswich, Moores Pocket, Wulkuraka, Sadliers Crossing",159.9,9.01000000000002,‚ö™ Market Price,üü¢ Cold Spot (Low-Low),-27.661644,152.739343,0.018
61402215,BP Narangba,Narangba,215.9,65.01000000000002,‚ö†Ô∏è Expensive,Neutral,-27.186077,152.934985,0.483
61402220,BP Hillcrest,"Brownsleigh, Forestdale, Heritage Park, Browns Plains Bc, Hillcrest, Regents Park, Browns Plains",209.9,59.01000000000002,‚ùå PRICE GOUGE,üî¥ Hot Spot (High-High),-27.674462,153.027669,0.01
61478112,Ampol Windsor,"Wooloowin, Lutwyche, Eildon Hill, Windsor, Kalinga",215.9,65.01000000000002,‚ö†Ô∏è Expensive,üü† Hot outlier (High-Low),-27.436792733114075,153.02339601223372,0.044
61401195,EG Ampol Moorooka,"Tennyson, Clifton Hill, Moorvale, Moorooka, Yeerongpilly",159.9,9.01000000000002,‚ö™ Market Price,üü¢ Cold Spot (Low-Low),-27.539627,153.022022,0.001
61402223,EG Ampol Burpengary,"Burpengary Dc, Burpengary, Burpengary East",215.9,65.01000000000002,‚ö†Ô∏è Expensive,Neutral,-27.154423,152.974743,0.207
61401347,BP Windsor,"Wooloowin, Lutwyche, Eildon Hill, Windsor, Kalinga",161.9,11.01000000000002,‚ö™ Market Price,Neutral,-27.43604130193541,153.03187014847944,0.089
61478059,EG Ampol Brendale,"Bray Park, Strathpine, Clear Mountain, Warner, Brendale Dc, Joyner, Brendale Bc, Strathpine City, Strathpine Centre, Cashmere, Brendale",215.9,65.01000000000002,‚ö†Ô∏è Expensive,Neutral,-27.315004,152.966679,0.247
61402234,EG Ampol Booval,"North Booval, Ebbw Vale, Booval Fair, Silkstone, Booval Dc, Bundamba, Blackstone, Booval, Booval Bc",215.9,65.01000000000002,‚ö†Ô∏è Expensive,Neutral,-27.616944,152.790529,0.452
61402345,BP Connect Caboolture South,"Moodlu, Bellmere, Caboolture, Meldale, Upper Caboolture, Caboolture South, Balingool, Donnybrook, Caboolture Bc, Rocksberg, Beachmere, Toorbul",215.9,65.01000000000002,‚ö†Ô∏è Expensive,Neutral,-27.123314,152.978186,0.205
61402359,EG Ampol Cannon Hill,"Seven Hills, Norman Park, Morningside, Colmslie, Cannon Hill",215.9,65.01000000000002,‚ö†Ô∏è Expensive,Neutral,-27.471036,153.104019,0.165
61402348,BP Connect Caboolture North,"Moodlu, Bellmere, Caboolture, Meldale, Upper Caboolture, Caboolture South, Balingool, Donnybrook, Caboolture Bc, Rocksberg, Beachmere, Toorbul",215.9,65.01000000000002,‚ö†Ô∏è Expensive,Neutral,-27.124577,152.976285,0.205
61401546,BP Connect Springwood,"Daisy Hill, Slacks Creek, Springwood, Springwood Bc, Chatswood Hills, Priestdale",159.9,9.01000000000002,‚ö™ Market Price,Neutral,-27.622437,153.127984,0.415
61401939,BP Express Goodna,"Camira, Springfield, Opossum Creek, Bellbird Park, Goodna Dc, Gailes, Springfield Central, Carole Park, Springfield Lakes, Spring Mountain, Goodna East, Goodna, Augustine Heights, Brookwater",164.9,14.01000000000002,‚ö™ Market Price,Neutral,-27.609654,152.902465,0.366
61401551,EG Ampol Kenmore,"Pullenvale, Pinjarra Hills, Lone Pine, Brookfield, Kenmore Dc, Kenmore East, Fig Tree Pocket, Upper Brookfield, Chapel Hill, Kenmore, Kenmore Hills",215.9,65.01000000000002,‚ö†Ô∏è Expensive,Neutral,-27.507567,152.940427,0.334
61402876,EG Ampol Bowen Hills,"Brisbane Exhibition, Mayne, Herston, Fortitude Valley, Bowen Bridge, Fortitude Valley Bc, Newstead, Bowen Hills",215.9,65.01000000000002,‚ö†Ô∏è Expensive,üü† Hot outlier (High-Low),-27.43935684389341,153.04003769940567,0.033
61477722,EG Ampol Park Ridge,"Munruben, Park Ridge South, Park Ridge",215.9,65.01000000000002,‚ùå PRICE GOUGE,üî¥ Hot Spot (High-High),-27.697954,153.039827,0.005
61402897,EG Ampol Kallangur,"Kurwongbah, Kallangur, Griffin, Whiteside, Dakabin, Murrumba Downs, Dohles Rocks",215.9,65.01000000000002,‚ùå PRICE GOUGE,üî¥ Hot Spot (High-High),-27.250943,152.992977,0.022
61401915,EG Ampol Mitchelton,"Stafford Heights, Everton Hills, Mcdowall, Mitchelton, Stafford City, Stafford Dc, Oxford Park, Somerset Hills, Brookside Centre, Everton Park, Stafford Bc, Stafford",159.9,9.01000000000002,‚ö™ Market Price,Neutral,-27.415386,152.977543,0.234
61401544,BP Connect Bowen Bridge,"Brisbane Exhibition, Mayne, Herston, Fortitude Valley, Bowen Bridge, Fortitude Valley Bc, Newstead, Bowen Hills",161.9,11.01000000000002,‚ö™ Market Price,üü¢ Cold Spot (Low-Low),-27.44523630788419,153.02938104662704,0.024
61477061,EG Ampol Victoria Point,"Mount Cotton, Redland Bay, Victoria Point West, Point Talburpin, Point Halloran, Victoria Point",215.9,65.01000000000002,‚ö†Ô∏è Expensive,Neutral,-27.587057,153.282657,0.191
61401908,EG Ampol Virginia,"Northgate Mc, Northgate",160.9,10.01000000000002,‚ö™ Market Price,üü¢ Cold Spot (Low-Low),-27.383445,153.064113,0.003
61477081,EG Ampol Joyner,"Bray Park, Strathpine, Clear Mountain, Warner, Brendale Dc, Joyner, Brendale Bc, Strathpine City, Strathpine Centre, Cashmere, Brendale",215.9,65.01000000000002,‚ö†Ô∏è Expensive,Neutral,-27.290927,152.953124,0.492
61401766,BP Wacol Truck Stop,"Wacol, Darra, Wacol East Immigration Centre",159.9,9.01000000000002,‚ö™ Market Price,Neutral,-27.593532,152.934594,0.401
61401906,BP Express Eight Mile Plains,"Fruitgrove, Runcorn, Eight Mile Plains",159.9,9.01000000000002,‚ö™ Market Price,Neutral,-27.575708,153.087955,0.459
61477129,EG Ampol Meadowbrook,"Loganlea, Meadowbrook",215.9,65.01000000000002,‚ùå PRICE GOUGE,üî¥ Hot Spot (High-High),-27.667831,153.138292,0.006
61401899,EG Ampol Goodna,"Camira, Springfield, Opossum Creek, Bellbird Park, Goodna Dc, Gailes, Springfield Central, Carole Park, Springfield Lakes, Spring Mountain, Goodna East, Goodna, Augustine Heights, Brookwater",215.9,65.01000000000002,‚ö†Ô∏è Expensive,Neutral,-27.628223,152.883713,0.408
61477645,BP Logan Motorway East,"Acacia Ridge, Acacia Ridge Bc, Acacia Ridge Dc, Heathwood Df, Willawong, Larapinta, Heathwood, Pallara",215.9,65.01000000000002,‚ö†Ô∏è Expensive,Neutral,-27.640169,153.010137,0.462
61477071,BP Slacks Creek,"Daisy Hill, Slacks Creek, Springwood, Springwood Bc, Chatswood Hills, Priestdale",215.9,65.01000000000002,‚ùå PRICE GOUGE,üî¥ Hot Spot (High-High),-27.655874,153.162979,0.012
61402845,EG Ampol Underwood,Underwood,158.9,8.01000000000002,‚ö™ Market Price,Neutral,-27.606312,153.109055,0.26
61402834,EG Ampol Enoggera,"Alderley, Newmarket, Wilston, The Grange, Gaythorne, Enoggera, Grange",159.9,9.01000000000002,‚ö™ Market Price,Neutral,-27.42935179933878,152.98930968220904,0.163
61402830,EG Ampol Calamvale,"Calamvale, Drewvale, Stretton",215.9,65.01000000000002,‚ö†Ô∏è Expensive,Neutral,-27.611892,153.054057,0.082
61401373,BP Manly,"Lota, Manly West, Manly",215.9,65.01000000000002,‚ùå PRICE GOUGE,üî¥ Hot Spot (High-High),-27.457538,153.178798,0.028
61401377,BP The Gap,The Gap,215.9,65.01000000000002,‚ö†Ô∏è Expensive,Neutral,-27.446887,152.959528,0.086
61402356,EG Ampol Keperra,"Grovely, Keperra, Arana Hills",215.9,65.01000000000002,‚ö†Ô∏è Expensive,Neutral,-27.417028,152.949281,0.364
61402362,EG Ampol Brookside,"Stafford Heights, Everton Hills, Mcdowall, Mitchelton, Stafford City, Stafford Dc, Oxford Park, Somerset Hills, Brookside Centre, Everton Park, Stafford Bc, Stafford",215.9,65.01000000000002,‚ö†Ô∏è Expensive,Neutral,-27.409841,152.981438,0.179
61402094,EG Ampol Caboolture South - Market Plaza,"Moodlu, Bellmere, Caboolture, Meldale, Upper Caboolture, Caboolture South, Balingool, Donnybrook, Caboolture Bc, Rocksberg, Beachmere, Toorbul",215.9,65.01000000000002,‚ö†Ô∏è Expensive,Neutral,-27.09453583645176,152.9511927288361,0.356
61402390,EG Ampol Oxley,"Corinda, Oxley, Graceville East, Graceville, Sherwood",155.9,5.010000000000019,‚ö™ Market Price,üü¢ Cold Spot (Low-Low),-27.572194,152.981702,0.001
61402391,EG Ampol Cornubia,"Carbrook, Cornubia",215.9,65.01000000000002,‚ö†Ô∏è Expensive,Neutral,-27.672522,153.212491,0.267
61402392,EG Ampol Woodridge,"Logan Central, Woodridge East, Trinder Park, Logan City Dc, Logan City Bc, Woodridge, Kingston",215.9,65.01000000000002,‚ö†Ô∏è Expensive,Neutral,-27.645186,153.118928,0.132
61401447,EG Ampol Macgregor,"Sunnybank, Robertson, Altandi, Macgregor, Sunnybank Hills, Sunnybank South, Banoon",215.9,65.01000000000002,‚ö†Ô∏è Expensive,Neutral,-27.562252,153.074394,0.199
61402398,EG Ampol Mount Ommaney,"Sumner Park Bc, Westlake, Mount Ommaney, Jamboree Heights, Sumner, Riverhills, Jindalee, Middle Park",215.9,65.01000000000002,‚ö†Ô∏è Expensive,Neutral,-27.549542,152.941043,0.335
61402086,EG Ampol Slacks Creek,"Daisy Hill, Slacks Creek, Springwood, Springwood Bc, Chatswood Hills, Priestdale",215.9,65.01000000000002,‚ö†Ô∏è Expensive,Neutral,-27.640345,153.132893,0.186
61401951,EG Ampol Mount Cotton,"Capalaba West, Sheldon, Capalaba, Capalaba Dc, Capalaba Bc",161.9,11.01000000000002,‚ö™ Market Price,Neutral,-27.561251,153.197803,0.49
61401943,EG Ampol Browns Plains West,"Brownsleigh, Forestdale, Heritage Park, Browns Plains Bc, Hillcrest, Regents Park, Browns Plains",215.9,65.01000000000002,‚ùå PRICE GOUGE,üî¥ Hot Spot (High-High),-27.659403,153.028989,0.006
61402762,EG Ampol Karalee,"Dundas, Peak Crossing, Fairney View, Wanora, Haigslea, Goolman, Moore, South Ripley, Muirlea, Karana Downs, Wivenhoe Pocket, Karrabin, Vernor, Benarkin, Lake Manchester, Fernvale, Amberley, Mount Binga, Lark Hill, Chuwar, Banks Creek, Ripley, Mount Stanley, Thagoona, Blacksoil, Blackbutt, Mount Crosby, Nukku, Split Yard Creek, Mount Marrow, Holts Hill, Bellhaven, Willowbank, Pine Mountain, Purga, Ironbark, Glamorgan Vale, White Rock, Teelah, Blackbutt South, Loamside, Forest Glade, Kholo, Wivenhoe, England Creek, West Amberley, Monsildale, Blackwall, Borallon, Colinton, Benarkin North, Cherry Creek, Googa Creek, Barellan Point, Deebing Heights, Blackbutt North, Washpool, Taromeo, Linville, Harlin, Karalee, Avoca Vale, Walloon, Swanbank",215.9,65.01000000000002,‚ùå PRICE GOUGE,üî¥ Hot Spot (High-High),-27.571241,152.799327,0.036
61402813,BP Connect North Lakes,"Mango Hill, North Lakes",215.9,65.01000000000002,‚ùå PRICE GOUGE,üî¥ Hot Spot (High-High),-27.241863,153.023055,0.027
61477755,BP Coopers Plains,"Archerfield, Archerfield Bc, Coopers Plains",159.9,9.01000000000002,‚ö™ Market Price,üü¢ Cold Spot (Low-Low),-27.567265,153.024317,0.001
61402816,EG Ampol Springfield,"Camira, Springfield, Opossum Creek, Bellbird Park, Goodna Dc, Gailes, Springfield Central, Carole Park, Springfield Lakes, Spring Mountain, Goodna East, Goodna, Augustine Heights, Brookwater",163.9,13.01000000000002,‚ö™ Market Price,Neutral,-27.678856,152.904123,0.424
61401353,BP Connect Hamilton,"Whinstanes, Hamilton Central, Doomben, Brisbane Airport, Ascot, Hamilton",163.9,13.01000000000002,‚ö™ Market Price,üü¢ Cold Spot (Low-Low),-27.439652,153.049148,0.047
61401106,BP Newstead,"Brisbane Exhibition, Mayne, Herston, Fortitude Valley, Bowen Bridge, Fortitude Valley Bc, Newstead, Bowen Hills",161.9,11.01000000000002,‚ö™ Market Price,Neutral,-27.452584,153.041807,0.126
